2025-12-20 19:21:55.362 | $GPGSA,A,1,,,,,,,,,,,,,,,,1*03
2025-12-20 19:21:55.363 | $BDGSA,A,1,,,,,,,,,,,,,,,,4*17
2025-12-20 19:21:55.363 | $GPGSV,1,1,02,26,,,27,18,,,26*77
2025-12-20 19:21:55.364 | $BDGSV,0,1,00*69
2025-12-20 19:21:55.364 | $GNRMC,,V,,,,,,,,,,N*4D
2025-12-20 19:21:55.365 | $GNZDA,,,,,,*56
2025-12-20 19:21:55.365 | $GNGGA,,,,,,0,00,,,M,,M,,*78
2025-12-20 19:21:55.365 | $GPGSA,A,1,,,,,,,,,,,,,,,,1*03
2025-12-20 19:21:55.376 | $BDGSA,A,1,,,,,,,,,,,,,,,,4*17
2025-12-20 19:21:55.407 | $GPGSV,1,1,02,26,,,29,18,,,26*79
2025-12-20 19:21:55.428 | $BDGSV,0,1,00*69
2025-12-20 19:21:55.449 | $GNRMC,,V,,,,,,,,,,N*4D
2025-12-20 19:21:55.469 | $GNZDA,,,,,,*56
2025-12-20 19:21:56.301 | $GNGGA,,,,,,0,00,,,M,,M,,*78
2025-12-20 19:21:56.332 | $GPGSA,A,1,,,,,,,,,,,,,,,,1*03
2025-12-20 19:21:56.373 | $BDGSA,A,1,,,,,,,,,,,,,,,,4*17
2025-12-20 19:21:56.404 | $GPGSV,1,1,02,26,,,29,18,,,26*79
2025-12-20 19:21:56.425 | $BDGSV,0,1,00*69
2025-12-20 19:21:56.456 | $GNRMC,,V,,,,,,,,,,N*4D
2025-12-20 19:21:56.466 | $GNZDA,,,,,,*56
2025-12-20 19:21:57.298 | $GNGGA,,,,,,0,00,,,M,,M,,*78
2025-12-20 19:21:57.339 | $GPGSA,A,1,,,,,,,,,,,,,,,,1*03
2025-12-20 19:21:57.369 | $BDGSA,A,1,,,,,,,,,,,,,,,,4*17
2025-12-20 19:21:57.410 | $GPGSV,1,1,02,26,,,27,18,,,25*74
2025-12-20 19:21:57.420 | $BDGSV,0,1,00*69
2025-12-20 19:21:57.451 | $GNRMC,,V,,,,,,,,,,N*4D
2025-12-20 19:21:57.471 | $GNZDA,,,,,,*56
2025-12-20 19:21:58.304 | $GNGGA,,,,,,0,00,,,M,,M,,*78
2025-12-20 19:21:58.335 | $GPGSA,A,1,,,,,,,,,,,,,,,,1*03
2025-12-20 19:21:58.365 | $BDGSA,A,1,,,,,,,,,,,,,,,,4*17
2025-12-20 19:21:58.406 | $GPGSV,1,1,02,26,,,28,18,,,26*78
2025-12-20 19:21:58.427 | $BDGSV,0,1,00*69
2025-12-20 19:21:58.447 | $GNRMC,,V,,,,,,,,,,N*4D
2025-12-20 19:21:58.468 | $GNZDA,,,,,,*56
2025-12-20 19:21:59.300 | $GNGGA,,,,,,0,00,,,M,,M,,*78
2025-12-20 19:21:59.341 | $GPGSA,A,1,,,,,,,,,,,,,,,,1*03
2025-12-20 19:21:59.372 | $BDGSA,A,1,,,,,,,,,,,,,,,,4*17
2025-12-20 19:21:59.403 | $GPGSV,1,1,02,26,,,27,18,,,25*74
2025-12-20 19:21:59.423 | $BDGSV,0,1,00*69
2025-12-20 19:21:59.454 | $GNRMC,,V,,,,,,,,,,N*4D
2025-12-20 19:21:59.465 | $GNZDA,,,,,,*56
2025-12-20 19:22:00.307 | $GNGGA,,,,,,0,00,,,M,,M,,*78
2025-12-20 19:22:00.338 | $GPGSA,A,1,,,,,,,,,,,,,,,,1*03
2025-12-20 19:22:00.369 | $BDGSA,A,1,,,,,,,,,,,,,,,,4*17
2025-12-20 19:22:00.410 | $GPGSV,1,1,02,26,,,25,18,,,23*70
2025-12-20 19:22:00.420 | $BDGSV,0,1,00*69
2025-12-20 19:22:00.450 | $GNRMC,,V,,,,,,,,,,N*4D
2025-12-20 19:22:00.471 | $GNZDA,,,,,,*56
2025-12-20 19:22:01.303 | $GNGGA,,,,,,0,00,,,M,,M,,*78
2025-12-20 19:22:01.334 | $GPGSA,A,1,,,,,,,,,,,,,,,,1*03
2025-12-20 19:22:01.375 | $BDGSA,A,1,,,,,,,,,,,,,,,,4*17
2025-12-20 19:22:01.405 | $GPGSV,1,1,02,26,,,36,18,,,36*76
2025-12-20 19:22:01.426 | $BDGSV,0,1,00*69
2025-12-20 19:22:01.447 | $GNRMC,,V,,,,,,,,,,N*4D
2025-12-20 19:22:01.467 | $GNZDA,,,,,,*56
2025-12-20 19:22:02.299 | $GNGGA,,,,,,0,00,,,M,,M,,*78
2025-12-20 19:22:02.340 | $GPGSA,A,1,,,,,,,,,,,,,,,,1*03
2025-12-20 19:22:02.371 | $BDGSA,A,1,,,,,,,,,,,,,,,,4*17
2025-12-20 19:22:02.402 | $GPGSV,1,1,02,18,,,37,26,,,36*77
2025-12-20 19:22:02.433 | $BDGSV,1,1,01,8,,,36*54
2025-12-20 19:22:02.454 | $GNRMC,,V,,,,,,,,,,N*4D
2025-12-20 19:22:02.474 | $GNZDA,,,,,,*56
2025-12-20 19:22:03.306 | $GNGGA,,,,,,0,00,,,M,,M,,*78
2025-12-20 19:22:03.337 | $GPGSA,A,1,,,,,,,,,,,,,,,,1*03
2025-12-20 19:22:03.368 | $BDGSA,A,1,,,,,,,,,,,,,,,,4*17
2025-12-20 19:22:03.409 | $GPGSV,1,1,02,18,,,40,26,,,40*76
2025-12-20 19:22:03.429 | $BDGSV,1,1,01,8,,,37*55
2025-12-20 19:22:03.460 | $GNRMC,,V,,,,,,,,,,N*4D
2025-12-20 19:22:03.481 | $GNZDA,,,,,,*56
2025-12-20 19:22:04.303 | $GNGGA,,,,,,0,00,,,M,,M,,*78
2025-12-20 19:22:04.344 | $GPGSA,A,1,,,,,,,,,,,,,,,,1*03
2025-12-20 19:22:04.375 | $BDGSA,A,1,,,,,,,,,,,,,,,,4*17
2025-12-20 19:22:04.416 | $GPGSV,1,1,03,26,,,43,18,,,40,29,,,39*75
2025-12-20 19:22:04.446 | $BDGSV,1,1,01,8,,,37*55
2025-12-20 19:22:04.467 | $GNRMC,,V,,,,,,,,,,N*4D
2025-12-20 19:22:04.488 | $GNZDA,,,,,,*56
2025-12-20 19:22:05.309 | $GNGGA,,,,,,0,00,,,M,,M,,*78
2025-12-20 19:22:05.339 | $GPGSA,A,1,,,,,,,,,,,,,,,,1*03
2025-12-20 19:22:05.370 | $BDGSA,A,1,,,,,,,,,,,,,,,,4*17
2025-12-20 19:22:05.421 | $GPGSV,1,1,04,26,,,43,18,,,41,29,,,38,5,,,30*44
2025-12-20 19:22:05.462 | $BDGSV,1,1,02,8,,,34,13,,,30*54
2025-12-20 19:22:05.482 | $GNRMC,,V,,,,,,,,,,N*4D
2025-12-20 19:22:05.503 | $GNZDA,,,,,,*56
2025-12-20 19:22:06.304 | $GNGGA,,,,,,0,00,,,M,,M,,*78
2025-12-20 19:22:06.345 | $GPGSA,A,1,,,,,,,,,,,,,,,,1*03
2025-12-20 19:22:06.376 | $BDGSA,A,1,,,,,,,,,,,,,,,,4*17
2025-12-20 19:22:06.427 | $GPGSV,1,1,04,26,,,46,18,,,44,29,,,40,5,,,34*4F
2025-12-20 19:22:06.458 | $BDGSV,1,1,02,13,,,34,8,,,33*57
2025-12-20 19:22:06.488 | $GNRMC,,V,,,,,,,,,,N*4D
2025-12-20 19:22:06.509 | $GNZDA,,,,,,*56
2025-12-20 19:22:07.310 | $GNGGA,,,,,,0,00,,,M,,M,,*78
2025-12-20 19:22:07.340 | $GPGSA,A,1,,,,,,,,,,,,,,,,1*03
2025-12-20 19:22:07.371 | $BDGSA,A,1,,,,,,,,,,,,,,,,4*17
2025-12-20 19:22:07.422 | $GPGSV,1,1,04,26,,,47,18,,,45,29,,,41,5,,,35*4F
2025-12-20 19:22:07.463 | $BDGSV,1,1,02,8,,,36,13,,,35*53
2025-12-20 19:22:07.483 | $GNRMC,,V,,,,,,,,,,N*4D
2025-12-20 19:22:07.504 | $GNZDA,,,,,,*56
2025-12-20 19:22:08.305 | $GNGGA,,,,,,0,00,,,M,,M,,*78
2025-12-20 19:22:08.346 | $GPGSA,A,1,,,,,,,,,,,,,,,,1*03
2025-12-20 19:22:08.377 | $BDGSA,A,1,,,,,,,,,,,,,,,,4*17
2025-12-20 19:22:08.428 | $GPGSV,2,1,05,26,,,47,18,,,46,29,,,41,31,,,37*7B
2025-12-20 19:22:08.459 | $GPGSV,2,2,05,5,,,33*49
2025-12-20 19:22:08.490 | $BDGSV,1,1,02,8,,,36,13,,,35*53
2025-12-20 19:22:08.510 | $GNRMC,,V,,,,,,,,,,N*4D
2025-12-20 19:22:08.531 | $GNZDA,,,,,,*56
2025-12-20 19:22:09.322 | $GNGGA,172208.751,,,,,0,00,,,M,,M,,*6B
2025-12-20 19:22:09.353 | $GPGSA,A,1,,,,,,,,,,,,,,,,1*03
2025-12-20 19:22:09.384 | $BDGSA,A,1,,,,,,,,,,,,,,,,4*17
2025-12-20 19:22:09.435 | $GPGSV,2,1,05,18,,,44,26,,,43,29,,,37,31,,,37*7C
2025-12-20 19:22:09.466 | $GPGSV,2,2,05,5,,,30*4A
2025-12-20 19:22:09.496 | $BDGSV,1,1,02,13,,,33,8,,,31*52
2025-12-20 19:22:09.537 | $GNRMC,172208.751,V,,,,,,,,,,N*5E
2025-12-20 19:22:09.568 | $GNZDA,172208.751,,,,,*45
2025-12-20 19:22:10.318 | $GNGGA,172209.751,,,,,0,00,,,M,,M,,*6A
2025-12-20 19:22:10.360 | $GPGSA,A,1,,,,,,,,,,,,,,,,1*03
2025-12-20 19:22:10.392 | $BDGSA,A,1,,,,,,,,,,,,,,,,4*17
2025-12-20 19:22:10.443 | $GPGSV,2,1,05,18,,,43,26,,,43,29,,,37,31,,,37*7B
2025-12-20 19:22:10.463 | $GPGSV,2,2,05,5,,,29*42
2025-12-20 19:22:10.505 | $BDGSV,1,1,02,13,,,33,8,,,31*52
2025-12-20 19:22:10.536 | $GNRMC,172209.751,V,,,,,,,,,,N*5F
2025-12-20 19:22:10.567 | $GNZDA,172209.751,,,,,*44
2025-12-20 19:22:11.321 | $GNGGA,172210.751,,,,,0,00,,,M,,M,,*62
2025-12-20 19:22:11.352 | $GPGSA,A,1,,,,,,,,,,,,,,,,1*03
2025-12-20 19:22:11.382 | $BDGSA,A,1,,,,,,,,,,,,,,,,4*17
2025-12-20 19:22:11.444 | $GPGSV,2,1,05,18,,,44,26,,,43,29,,,36,31,,,35*7F
2025-12-20 19:22:11.465 | $GPGSV,2,2,05,5,,,28*43
2025-12-20 19:22:11.506 | $BDGSV,1,1,02,13,,,32,8,,,30*52
2025-12-20 19:22:11.537 | $GNRMC,172210.751,V,,,,,,,,,,N*57
2025-12-20 19:22:11.567 | $GNZDA,172210.751,,,,,*4C
2025-12-20 19:22:12.317 | $GNGGA,172211.751,,,,,0,00,,,M,,M,,*63
2025-12-20 19:22:12.358 | $GPGSA,A,1,,,,,,,,,,,,,,,,1*03
2025-12-20 19:22:12.389 | $BDGSA,A,1,,,,,,,,,,,,,,,,4*17
2025-12-20 19:22:12.441 | $GPGSV,2,1,05,18,,,44,26,,,44,29,,,36,31,,,35*78
2025-12-20 19:22:12.462 | $GPGSV,2,2,05,5,,,31*4B
2025-12-20 19:22:12.503 | $BDGSV,1,1,02,13,,,32,8,,,30*52
2025-12-20 19:22:12.533 | $GNRMC,172211.751,V,,,,,,,,,,N*56
2025-12-20 19:22:12.564 | $GNZDA,172211.751,,,,,*4D
2025-12-20 19:22:13.325 | $GNGGA,172212.751,,,,,0,00,,,M,,M,,*60
2025-12-20 19:22:13.355 | $GPGSA,A,1,,,,,,,,,,,,,,,,1*03
2025-12-20 19:22:13.386 | $BDGSA,A,1,,,,,,,,,,,,,,,,4*17
2025-12-20 19:22:13.437 | $GPGSV,2,1,05,18,,,44,26,,,44,29,,,38,31,,,35*76
2025-12-20 19:22:13.468 | $GPGSV,2,2,05,5,,,33*49
2025-12-20 19:22:13.499 | $BDGSV,1,1,02,8,,,34,13,,,32*56
2025-12-20 19:22:13.540 | $GNRMC,172212.751,V,,,,,,,,,,N*55
2025-12-20 19:22:13.571 | $GNZDA,172212.751,,,,,*4E
2025-12-20 19:22:14.331 | $GNGGA,172214.751,,,,,0,00,,,M,,M,,*66
2025-12-20 19:22:14.372 | $GPGSA,A,1,,,,,,,,,,,,,,,,1*03
2025-12-20 19:22:14.403 | $BDGSA,A,1,,,,,,,,,,,,,,,,4*17
2025-12-20 19:22:14.454 | $GPGSV,2,1,05,18,,,47,26,,,46,29,,,38,31,,,35*77
2025-12-20 19:22:14.485 | $GPGSV,2,2,05,5,,,33*49
2025-12-20 19:22:14.516 | $BDGSV,1,1,02,13,,,35,8,,,33*56
2025-12-20 19:22:14.557 | $GNRMC,172214.751,V,,,,,,,201225,,,N*55
2025-12-20 19:22:14.598 | $GNZDA,172214.751,20,12,2025,,*4C
2025-12-20 19:22:15.319 | $GNGGA,172215.751,,,,,0,00,,,M,,M,,*67
2025-12-20 19:22:15.360 | $GPGSA,A,1,,,,,,,,,,,,,,,,1*03
2025-12-20 19:22:15.390 | $BDGSA,A,1,,,,,,,,,,,,,,,,4*17
2025-12-20 19:22:15.442 | $GPGSV,2,1,05,18,,,47,26,,,46,29,,,38,31,,,35*77
2025-12-20 19:22:15.473 | $GPGSV,2,2,05,5,,,33*49
2025-12-20 19:22:15.503 | $BDGSV,1,1,02,13,,,35,8,,,32*57
2025-12-20 19:22:15.544 | $GNRMC,172215.751,V,,,,,,,201225,,,N*54
2025-12-20 19:22:15.585 | $GNZDA,172215.751,20,12,2025,,*4D
2025-12-20 19:22:16.326 | $GNGGA,172216.751,,,,,0,00,,,M,,M,,*64
2025-12-20 19:22:16.357 | $GPGSA,A,1,,,,,,,,,,,,,,,,1*03
2025-12-20 19:22:16.388 | $BDGSA,A,1,,,,,,,,,,,,,,,,4*17
2025-12-20 19:22:16.439 | $GPGSV,2,1,05,18,,,47,26,,,46,29,,,38,31,,,36*74
2025-12-20 19:22:16.469 | $GPGSV,2,2,05,5,,,34*4E
2025-12-20 19:22:16.500 | $BDGSV,1,1,02,13,,,35,8,,,33*56
2025-12-20 19:22:16.541 | $GNRMC,172216.751,V,,,,,,,201225,,,N*57
2025-12-20 19:22:16.582 | $GNZDA,172216.751,20,12,2025,,*4E
2025-12-20 19:22:17.322 | $GNGGA,172217.751,,,,,0,00,,,M,,M,,*65
2025-12-20 19:22:17.353 | $GPGSA,A,1,,,,,,,,,,,,,,,,1*03
2025-12-20 19:22:17.394 | $BDGSA,A,1,,,,,,,,,,,,,,,,4*17
2025-12-20 19:22:17.445 | $GPGSV,2,1,05,18,,,46,26,,,46,29,,,38,31,,,36*75
2025-12-20 19:22:17.465 | $GPGSV,2,2,05,5,,,34*4E
2025-12-20 19:22:17.506 | $BDGSV,1,1,02,13,,,35,8,,,33*56
2025-12-20 19:22:17.547 | $GNRMC,172217.751,V,,,,,,,201225,,,N*56
2025-12-20 19:22:17.588 | $GNZDA,172217.751,20,12,2025,,*4F
2025-12-20 19:22:18.328 | $GNGGA,172218.751,,,,,0,00,,,M,,M,,*6A
2025-12-20 19:22:18.359 | $GPGSA,A,1,,,,,,,,,,,,,,,,1*03
2025-12-20 19:22:18.400 | $BDGSA,A,1,,,,,,,,,,,,,,,,4*17
2025-12-20 19:22:18.452 | $GPGSV,2,1,05,18,,,43,26,,,42,29,,,38,31,,,33*71
2025-12-20 19:22:18.472 | $GPGSV,2,2,05,5,,,30*4A
2025-12-20 19:22:18.513 | $BDGSV,1,1,02,13,,,35,8,,,33*56
2025-12-20 19:22:18.554 | $GNRMC,172218.751,V,,,,,,,201225,,,N*59
2025-12-20 19:22:18.584 | $GNZDA,172218.751,20,12,2025,,*40
2025-12-20 19:22:19.321 | $GNGGA,172219.751,,,,,0,00,,,M,,M,,*6B
2025-12-20 19:22:19.362 | $GPGSA,A,1,,,,,,,,,,,,,,,,1*03
2025-12-20 19:22:19.393 | $BDGSA,A,1,,,,,,,,,,,,,,,,4*17
2025-12-20 19:22:19.445 | $GPGSV,2,1,05,18,,,44,26,,,40,29,,,35,31,,,32*78
2025-12-20 19:22:19.465 | $GPGSV,2,2,05,5,,,27*4C
2025-12-20 19:22:19.506 | $BDGSV,1,1,02,13,,,32,8,,,32*50
2025-12-20 19:22:19.547 | $GNRMC,172219.751,V,,,,,,,201225,,,N*58
2025-12-20 19:22:19.588 | $GNZDA,172219.751,20,12,2025,,*41
2025-12-20 19:22:20.329 | $GNGGA,172220.751,,,,,0,00,,,M,,M,,*61
2025-12-20 19:22:20.360 | $GPGSA,A,1,,,,,,,,,,,,,,,,1*03
2025-12-20 19:22:20.391 | $BDGSA,A,1,,,,,,,,,,,,,,,,4*17
2025-12-20 19:22:20.442 | $GPGSV,2,1,05,18,,,44,26,,,44,29,,,39,31,,,37*75
2025-12-20 19:22:20.473 | $GPGSV,2,2,05,5,,,31*4B
2025-12-20 19:22:20.504 | $BDGSV,1,1,02,8,,,34,13,,,31*55
2025-12-20 19:22:20.545 | $GNRMC,172220.751,V,,,,,,,201225,,,N*52
2025-12-20 19:22:20.586 | $GNZDA,172220.751,20,12,2025,,*4B
2025-12-20 19:22:21.327 | $GNGGA,172221.751,,,,,0,00,,,M,,M,,*60
2025-12-20 19:22:21.358 | $GPGSA,A,1,,,,,,,,,,,,,,,,1*03
2025-12-20 19:22:21.399 | $BDGSA,A,1,,,,,,,,,,,,,,,,4*17
2025-12-20 19:22:21.450 | $GPGSV,2,1,05,18,,,44,26,,,44,29,,,38,31,,,36*75
2025-12-20 19:22:21.471 | $GPGSV,2,2,05,5,,,32*48
2025-12-20 19:22:21.512 | $BDGSV,1,1,02,8,,,33,13,,,32*51
2025-12-20 19:22:21.553 | $GNRMC,172221.751,V,,,,,,,201225,,,N*53
2025-12-20 19:22:21.584 | $GNZDA,172221.751,20,12,2025,,*4A
2025-12-20 19:22:22.325 | $GNGGA,172222.751,,,,,0,00,,,M,,M,,*63
2025-12-20 19:22:22.356 | $GPGSA,A,1,,,,,,,,,,,,,,,,1*03
2025-12-20 19:22:22.397 | $BDGSA,A,1,,,,,,,,,,,,,,,,4*17
2025-12-20 19:22:22.448 | $GPGSV,2,1,05,18,,,44,26,,,44,29,,,41,31,,,36*7B
2025-12-20 19:22:22.469 | $GPGSV,2,2,05,5,,,34*4E
2025-12-20 19:22:22.510 | $BDGSV,1,1,02,13,,,35,8,,,34*51
2025-12-20 19:22:22.551 | $GNRMC,172222.751,V,,,,,,,201225,,,N*50
2025-12-20 19:22:22.581 | $GNZDA,172222.751,20,12,2025,,*49
2025-12-20 19:22:23.322 | $GNGGA,172223.751,,,,,0,00,,,M,,M,,*62
2025-12-20 19:22:23.353 | $GPGSA,A,1,,,,,,,,,,,,,,,,1*03
2025-12-20 19:22:23.394 | $BDGSA,A,1,,,,,,,,,,,,,,,,4*17
2025-12-20 19:22:23.445 | $GPGSV,2,1,05,18,,,44,26,,,44,29,,,42,31,,,36*78
2025-12-20 19:22:23.466 | $GPGSV,2,2,05,5,,,34*4E
2025-12-20 19:22:23.507 | $BDGSV,1,1,02,13,,,35,8,,,34*51
2025-12-20 19:22:23.547 | $GNRMC,172223.751,V,,,,,,,201225,,,N*51
2025-12-20 19:22:23.588 | $GNZDA,172223.751,20,12,2025,,*48
2025-12-20 19:22:24.329 | $GNGGA,172224.751,,,,,0,00,,,M,,M,,*65
2025-12-20 19:22:24.360 | $GPGSA,A,1,,,,,,,,,,,,,,,,1*03
2025-12-20 19:22:24.390 | $BDGSA,A,1,,,,,,,,,,,,,,,,4*17
2025-12-20 19:22:24.441 | $GPGSV,2,1,05,18,,,45,26,,,44,29,,,42,31,,,36*79
2025-12-20 19:22:24.472 | $GPGSV,2,2,05,5,,,34*4E
2025-12-20 19:22:24.502 | $BDGSV,1,1,02,13,,,35,8,,,34*51
2025-12-20 19:22:24.543 | $GNRMC,172224.751,V,,,,,,,201225,,,N*56
2025-12-20 19:22:24.584 | $GNZDA,172224.751,20,12,2025,,*4F
2025-12-20 19:22:25.325 | $GNGGA,172225.751,,,,,0,00,,,M,,M,,*64
2025-12-20 19:22:25.356 | $GPGSA,A,1,,,,,,,,,,,,,,,,1*03
2025-12-20 19:22:25.387 | $BDGSA,A,1,,,,,,,,,,,,,,,,4*17
2025-12-20 19:22:25.440 | $GPGSV,2,1,05,18,,,45,26,,,45,29,,,41,31,,,36*7B
2025-12-20 19:22:25.470 | $GPGSV,2,2,05,5,,,34*4E
2025-12-20 19:22:25.501 | $BDGSV,1,1,02,13,,,35,8,,,34*51
2025-12-20 19:22:25.552 | $GNRMC,172225.751,V,,,,,,,201225,,,N*57
2025-12-20 19:22:25.582 | $GNZDA,172225.751,20,12,2025,,*4E
2025-12-20 19:22:26.323 | $GNGGA,172226.751,,,,,0,00,,,M,,M,,*67
2025-12-20 19:22:26.354 | $GPGSA,A,1,,,,,,,,,,,,,,,,1*03
2025-12-20 19:22:26.395 | $BDGSA,A,1,,,,,,,,,,,,,,,,4*17
2025-12-20 19:22:26.446 | $GPGSV,2,1,05,18,,,44,26,,,44,29,,,40,31,,,36*7A
2025-12-20 19:22:26.467 | $GPGSV,2,2,05,5,,,33*49
2025-12-20 19:22:26.508 | $BDGSV,1,1,02,13,,,36,8,,,34*52
2025-12-20 19:22:26.549 | $GNRMC,172226.751,V,,,,,,,201225,,,N*54
2025-12-20 19:22:26.580 | $GNZDA,172226.751,20,12,2025,,*4D
2025-12-20 19:22:27.320 | $GNGGA,172227.751,,,,,0,00,,,M,,M,,*66
2025-12-20 19:22:27.361 | $GPGSA,A,1,,,,,,,,,,,,,,,,1*03
2025-12-20 19:22:27.392 | $BDGSA,A,1,,,,,,,,,,,,,,,,4*17
2025-12-20 19:22:27.443 | $GPGSV,2,1,05,26,,,45,18,,,44,29,,,40,31,,,36*7B
2025-12-20 19:22:27.464 | $GPGSV,2,2,05,5,,,33*49
2025-12-20 19:22:27.505 | $BDGSV,1,1,02,13,,,36,8,,,35*53
2025-12-20 19:22:27.546 | $GNRMC,172227.751,V,,,,,,,201225,,,N*55
2025-12-20 19:22:27.587 | $GNZDA,172227.751,20,12,2025,,*4C
2025-12-20 19:22:28.327 | $GNGGA,172228.751,,,,,0,00,,,M,,M,,*69
2025-12-20 19:22:28.358 | $GPGSA,A,1,,,,,,,,,,,,,,,,1*03
2025-12-20 19:22:28.388 | $BDGSA,A,1,,,,,,,,,,,,,,,,4*17
2025-12-20 19:22:28.440 | $GPGSV,2,1,05,26,,,45,18,,,44,29,,,40,31,,,36*7B
2025-12-20 19:22:28.471 | $GPGSV,2,2,05,5,,,33*49
2025-12-20 19:22:28.502 | $BDGSV,1,1,02,13,,,36,8,,,35*53
2025-12-20 19:22:28.543 | $GNRMC,172228.751,V,,,,,,,201225,,,N*5A
2025-12-20 19:22:28.584 | $GNZDA,172228.751,20,12,2025,,*43
2025-12-20 19:22:29.325 | $GNGGA,172229.751,,,,,0,00,,,M,,M,,*68
2025-12-20 19:22:29.356 | $GPGSA,A,1,,,,,,,,,,,,,,,,1*03
2025-12-20 19:22:29.387 | $BDGSA,A,1,,,,,,,,,,,,,,,,4*17
2025-12-20 19:22:29.438 | $GPGSV,2,1,05,18,,,46,26,,,45,29,,,40,31,,,37*78
2025-12-20 19:22:29.469 | $GPGSV,2,2,05,5,,,34*4E
2025-12-20 19:22:29.499 | $BDGSV,1,1,02,13,,,36,8,,,34*52
2025-12-20 19:22:29.550 | $GNRMC,172229.751,V,,,,,,,201225,,,N*5B
2025-12-20 19:22:29.581 | $GNZDA,172229.751,20,12,2025,,*42
2025-12-20 19:22:30.464 | $GNGGA,172231.258,3004.54318,N,03139.54475,E,1,05,2.95,271.3,M,16.3,M,,*72
2025-12-20 19:22:30.526 | $GPGSA,A,3,18,29,26,31,05,,,,,,,,3.67,2.95,2.19,1*18
2025-12-20 19:22:30.567 | $BDGSA,A,3,,,,,,,,,,,,,3.67,2.95,2.19,4*0D
2025-12-20 19:22:30.638 | $GPGSV,2,1,05,18,72,300,46,29,45,59,40,26,44,309,45,31,25,268,37*42
2025-12-20 19:22:30.669 | $GPGSV,2,2,05,5,22,45,34*4F
2025-12-20 19:22:30.720 | $BDGSV,1,1,02,8,45,42,34,13,17,39,36*59
2025-12-20 19:22:30.792 | $GNRMC,172231.258,A,3004.54318,N,03139.54475,E,0.107,0.00,201225,,,A*48
2025-12-20 19:22:30.833 | $GNZDA,172231.258,20,12,2025,,*47
2025-12-20 19:22:31.240 | $GNGGA,172232.058,3004.54327,N,03139.54464,E,1,05,2.95,270.9,M,16.3,M,,*74
2025-12-20 19:22:31.291 | $GPGSA,A,3,18,29,26,31,05,,,,,,,,3.67,2.95,2.19,1*18
2025-12-20 19:22:31.342 | $BDGSA,A,3,,,,,,,,,,,,,3.67,2.95,2.19,4*0D
2025-12-20 19:22:31.414 | $GPGSV,2,1,06,18,72,300,46,29,45,59,37,26,44,309,43,31,25,268,37*47
2025-12-20 19:22:31.455 | $GPGSV,2,2,06,25,24,154,,5,22,45,31*78
2025-12-20 19:22:31.516 | $BDGSV,2,1,05,8,45,42,34,5,42,127,,2,23,108,,13,17,39,36*50
2025-12-20 19:22:31.547 | $BDGSV,2,2,05,3,2,95,*60
2025-12-20 19:22:31.619 | $GNRMC,172232.058,A,3004.54327,N,03139.54464,E,0.001,0.00,201225,,,A*42
2025-12-20 19:22:31.660 | $GNZDA,172232.058,20,12,2025,,*46
2025-12-20 19:22:32.209 | $GNGGA,172233.038,3004.54317,N,03139.54464,E,1,05,2.89,270.9,M,16.3,M,,*7D
2025-12-20 19:22:32.270 | $GPGSA,A,3,18,29,26,31,05,,,,,,,,3.03,2.89,0.91,1*15
2025-12-20 19:22:32.311 | $BDGSA,A,3,,,,,,,,,,,,,3.03,2.89,0.91,4*00
2025-12-20 19:22:32.383 | $GPGSV,2,1,06,18,72,300,45,29,45,59,39,26,44,309,44,31,25,268,37*4D
2025-12-20 19:22:32.434 | $GPGSV,2,2,06,25,24,154,,5,22,45,31*78
2025-12-20 19:22:32.496 | $BDGSV,2,1,05,8,45,42,32,5,42,127,,2,23,108,,13,17,39,36*56
2025-12-20 19:22:32.517 | $BDGSV,2,2,05,3,2,95,*60
2025-12-20 19:22:32.599 | $GNRMC,172233.038,A,3004.54317,N,03139.54464,E,0.001,0.00,201225,,,A*46
2025-12-20 19:22:32.630 | $GNZDA,172233.038,20,12,2025,,*41
2025-12-20 19:22:33.209 | $GNGGA,172234.018,3004.54315,N,03139.54463,E,1,06,2.89,270.8,M,16.3,M,,*7F
2025-12-20 19:22:33.260 | $GPGSA,A,3,18,29,26,31,05,,,,,,,,3.03,2.89,0.91,1*15
2025-12-20 19:22:33.312 | $BDGSA,A,3,08,,,,,,,,,,,,3.03,2.89,0.91,4*08
2025-12-20 19:22:33.383 | $GPGSV,2,1,06,18,72,300,45,29,45,59,39,26,44,309,44,31,25,268,37*4D
2025-12-20 19:22:33.425 | $GPGSV,2,2,06,25,24,154,,5,22,45,31*78
2025-12-20 19:22:33.486 | $BDGSV,2,1,05,5,42,127,,8,38,52,30,2,23,108,,13,17,39,36*5F
2025-12-20 19:22:33.517 | $BDGSV,2,2,05,3,2,95,*60
2025-12-20 19:22:33.598 | $GNRMC,172234.018,A,3004.54315,N,03139.54463,E,0.002,0.00,201225,,,A*45
2025-12-20 19:22:33.629 | $GNZDA,172234.018,20,12,2025,,*44
2025-12-20 19:22:34.178 | $GNGGA,172235.000,3004.54298,N,03139.54470,E,1,06,2.89,270.7,M,16.3,M,,*7E
2025-12-20 19:22:34.239 | $GPGSA,A,3,18,29,26,31,05,,,,,,,,3.03,2.89,0.91,1*15
2025-12-20 19:22:34.280 | $BDGSA,A,3,08,,,,,,,,,,,,3.03,2.89,0.91,4*08
2025-12-20 19:22:34.362 | $GPGSV,2,1,06,18,72,301,45,29,45,59,37,26,44,309,44,31,25,268,38*4D
2025-12-20 19:22:34.403 | $GPGSV,2,2,06,25,24,154,,5,22,45,29*71
2025-12-20 19:22:34.465 | $BDGSV,2,1,05,5,42,127,,8,38,52,29,2,23,108,,13,17,39,36*57
2025-12-20 19:22:34.485 | $BDGSV,2,2,05,3,2,95,*60
2025-12-20 19:22:34.567 | $GNRMC,172235.000,A,3004.54298,N,03139.54470,E,0.001,0.00,201225,,,A*48
2025-12-20 19:22:34.608 | $GNZDA,172235.000,20,12,2025,,*4C
2025-12-20 19:22:35.187 | $GNGGA,172236.000,3004.54282,N,03139.54476,E,1,06,2.89,270.6,M,16.3,M,,*71
2025-12-20 19:22:35.248 | $GPGSA,A,3,18,29,26,31,05,,,,,,,,3.03,2.89,0.91,1*15
2025-12-20 19:22:35.299 | $BDGSA,A,3,08,,,,,,,,,,,,3.03,2.89,0.91,4*08
2025-12-20 19:22:35.370 | $GPGSV,2,1,06,18,72,301,45,29,45,59,37,26,44,309,44,31,25,268,38*4D
2025-12-20 19:22:35.411 | $GPGSV,2,2,06,25,24,154,,5,22,45,33*7A
2025-12-20 19:22:35.472 | $BDGSV,2,1,05,5,42,127,,8,38,52,29,2,23,108,,13,17,39,36*57
2025-12-20 19:22:35.503 | $BDGSV,2,2,05,3,2,95,*60
2025-12-20 19:22:35.575 | $GNRMC,172236.000,A,3004.54282,N,03139.54476,E,0.001,0.00,201225,,,A*46
2025-12-20 19:22:35.616 | $GNZDA,172236.000,20,12,2025,,*4F
2025-12-20 19:22:36.184 | $GNGGA,172237.000,3004.54271,N,03139.54479,E,1,06,2.89,270.5,M,16.3,M,,*70
2025-12-20 19:22:36.246 | $GPGSA,A,3,18,29,26,31,05,,,,,,,,3.03,2.89,0.91,1*15
2025-12-20 19:22:36.297 | $BDGSA,A,3,08,,,,,,,,,,,,3.03,2.89,0.91,4*08
2025-12-20 19:22:36.369 | $GPGSV,2,1,06,18,72,301,45,29,45,59,37,26,44,309,44,31,25,268,40*42
2025-12-20 19:22:36.410 | $GPGSV,2,2,06,25,24,154,,5,22,45,28*70
2025-12-20 19:22:36.471 | $BDGSV,2,1,05,5,42,127,,8,38,52,24,2,23,108,,13,17,39,35*59
2025-12-20 19:22:36.502 | $BDGSV,2,2,05,3,2,95,*60
2025-12-20 19:22:36.574 | $GNRMC,172237.000,A,3004.54271,N,03139.54479,E,0.001,0.00,201225,,,A*44
2025-12-20 19:22:36.615 | $GNZDA,172237.000,20,12,2025,,*4E
2025-12-20 19:22:37.192 | $GNGGA,172238.000,3004.54263,N,03139.54477,E,1,06,2.89,270.4,M,16.3,M,,*73
2025-12-20 19:22:37.243 | $GPGSA,A,3,18,29,26,31,05,,,,,,,,3.03,2.89,0.91,1*15
2025-12-20 19:22:37.294 | $BDGSA,A,3,08,,,,,,,,,,,,3.03,2.89,0.91,4*08
2025-12-20 19:22:37.366 | $GPGSV,2,1,06,18,72,301,42,29,45,59,34,26,44,309,43,31,25,268,37*41
2025-12-20 19:22:37.408 | $GPGSV,2,2,06,25,24,154,,5,22,45,27*7F
2025-12-20 19:22:37.470 | $BDGSV,2,1,05,5,42,127,,8,38,52,20,2,23,108,,13,17,39,31*59
2025-12-20 19:22:37.500 | $BDGSV,2,2,05,3,2,95,*60
2025-12-20 19:22:37.582 | $GNRMC,172238.000,A,3004.54263,N,03139.54477,E,0.002,0.00,201225,,,A*45
2025-12-20 19:22:37.613 | $GNZDA,172238.000,20,12,2025,,*41
2025-12-20 19:22:38.202 | $GNGGA,172239.000,3004.54243,N,03139.54482,E,1,07,2.69,270.4,M,16.3,M,,*75
2025-12-20 19:22:38.263 | $GPGSA,A,3,18,29,26,31,05,,,,,,,,2.84,2.69,0.91,1*15
2025-12-20 19:22:38.314 | $BDGSA,A,3,13,08,,,,,,,,,,,2.84,2.69,0.91,4*0A
2025-12-20 19:22:38.386 | $GPGSV,2,1,06,18,72,301,43,29,45,59,38,26,44,309,43,31,25,268,37*4C
2025-12-20 19:22:38.427 | $GPGSV,2,2,06,25,24,154,,5,22,45,30*79
2025-12-20 19:22:38.489 | $BDGSV,2,1,05,13,47,67,36,5,42,127,,8,38,52,24,2,23,108,*54
2025-12-20 19:22:38.519 | $BDGSV,2,2,05,3,2,95,*60
2025-12-20 19:22:38.591 | $GNRMC,172239.000,A,3004.54243,N,03139.54482,E,0.001,0.00,201225,,,A*4F
2025-12-20 19:22:38.632 | $GNZDA,172239.000,20,12,2025,,*40
2025-12-20 19:22:39.190 | $GNGGA,172240.000,3004.54241,N,03139.54478,E,1,07,2.69,270.5,M,16.3,M,,*7D
2025-12-20 19:22:39.252 | $GPGSA,A,3,18,29,26,31,05,,,,,,,,2.84,2.69,0.91,1*15
2025-12-20 19:22:39.303 | $BDGSA,A,3,13,08,,,,,,,,,,,2.84,2.69,0.91,4*0A
2025-12-20 19:22:39.375 | $GPGSV,2,1,06,18,72,301,43,29,45,59,39,26,44,309,43,31,25,268,38*42
2025-12-20 19:22:39.416 | $GPGSV,2,2,06,25,24,154,,5,22,45,25*7D
2025-12-20 19:22:39.479 | $BDGSV,2,1,05,13,47,67,37,5,42,127,,8,38,52,26,2,23,108,*57
2025-12-20 19:22:39.510 | $BDGSV,2,2,05,3,2,95,*60
2025-12-20 19:22:39.581 | $GNRMC,172240.000,A,3004.54241,N,03139.54478,E,0.002,0.00,201225,,,A*45
2025-12-20 19:22:39.622 | $GNZDA,172240.000,20,12,2025,,*4E
2025-12-20 19:22:40.201 | $GNGGA,172241.000,3004.54239,N,03139.54475,E,1,07,2.69,270.6,M,16.3,M,,*7D
2025-12-20 19:22:40.252 | $GPGSA,A,3,18,29,26,31,05,,,,,,,,2.84,2.69,0.91,1*15
2025-12-20 19:22:40.303 | $BDGSA,A,3,13,08,,,,,,,,,,,2.84,2.69,0.91,4*0A
2025-12-20 19:22:40.375 | $GPGSV,2,1,06,18,72,301,40,29,45,59,29,26,44,309,41,31,25,268,38*42
2025-12-20 19:22:40.416 | $GPGSV,2,2,06,25,24,154,,5,22,45,27*7F
2025-12-20 19:22:40.488 | $BDGSV,2,1,05,13,47,67,31,5,42,127,,8,38,52,20,2,23,108,*57
2025-12-20 19:22:40.508 | $BDGSV,2,2,05,3,2,95,*60
2025-12-20 19:22:40.590 | $GNRMC,172241.000,A,3004.54239,N,03139.54475,E,0.002,0.00,201225,,,A*46
2025-12-20 19:22:40.621 | $GNZDA,172241.000,20,12,2025,,*4F
2025-12-20 19:22:41.190 | $GNGGA,172242.000,3004.54237,N,03139.54472,E,1,07,2.69,270.7,M,16.3,M,,*76
2025-12-20 19:22:41.252 | $GPGSA,A,3,18,29,26,31,05,,,,,,,,2.84,2.69,0.91,1*15
2025-12-20 19:22:41.303 | $BDGSA,A,3,13,08,,,,,,,,,,,2.84,2.69,0.91,4*0A
2025-12-20 19:22:41.375 | $GPGSV,2,1,06,18,72,301,40,29,45,59,32,26,44,309,41,31,25,268,37*47
2025-12-20 19:22:41.417 | $GPGSV,2,2,06,25,24,154,,5,22,45,23*7B
2025-12-20 19:22:41.479 | $BDGSV,2,1,05,13,47,67,34,5,42,127,,8,38,52,23,2,23,108,*51
2025-12-20 19:22:41.511 | $BDGSV,2,2,05,3,2,95,*60
2025-12-20 19:22:41.583 | $GNRMC,172242.000,A,3004.54237,N,03139.54472,E,0.001,0.00,201225,,,A*4F
2025-12-20 19:22:41.615 | $GNZDA,172242.000,20,12,2025,,*4C
2025-12-20 19:22:42.195 | $GNGGA,172243.000,3004.54235,N,03139.54470,E,1,07,2.69,270.8,M,16.3,M,,*78
2025-12-20 19:22:42.256 | $GPGSA,A,3,18,29,26,31,05,,,,,,,,2.84,2.69,0.91,1*15
2025-12-20 19:22:42.307 | $BDGSA,A,3,13,08,,,,,,,,,,,2.84,2.69,0.91,4*0A
2025-12-20 19:22:42.379 | $GPGSV,2,1,06,18,72,301,42,29,45,59,32,26,44,309,41,31,25,268,37*45
2025-12-20 19:22:42.420 | $GPGSV,2,2,06,25,24,154,,5,22,45,23*7B
2025-12-20 19:22:42.481 | $BDGSV,2,1,05,13,47,67,34,5,42,127,,8,38,52,24,2,23,108,*56
2025-12-20 19:22:42.512 | $BDGSV,2,2,05,3,2,95,*60
2025-12-20 19:22:42.583 | $GNRMC,172243.000,A,3004.54235,N,03139.54470,E,0.001,0.00,201225,,,A*4E
2025-12-20 19:22:42.624 | $GNZDA,172243.000,20,12,2025,,*4D
2025-12-20 19:22:43.192 | $GNGGA,172244.000,3004.54235,N,03139.54467,E,1,07,2.69,270.9,M,16.3,M,,*78
2025-12-20 19:22:43.254 | $GPGSA,A,3,18,29,26,31,05,,,,,,,,2.84,2.69,0.91,1*15
2025-12-20 19:22:43.295 | $BDGSA,A,3,13,08,,,,,,,,,,,2.84,2.69,0.91,4*0A
2025-12-20 19:22:43.377 | $GPGSV,2,1,06,18,72,301,42,29,45,59,33,26,44,309,41,31,25,268,38*4B
2025-12-20 19:22:43.418 | $GPGSV,2,2,06,25,24,154,,5,22,45,23*7B
2025-12-20 19:22:43.481 | $BDGSV,2,1,05,13,47,67,34,5,42,127,,8,38,52,25,2,23,108,*57
2025-12-20 19:22:43.502 | $BDGSV,2,2,05,3,2,95,*60
2025-12-20 19:22:43.586 | $GNRMC,172244.000,A,3004.54235,N,03139.54467,E,0.001,0.00,201225,,,A*4F
2025-12-20 19:22:43.617 | $GNZDA,172244.000,20,12,2025,,*4A
2025-12-20 19:22:44.195 | $GNGGA,172245.000,3004.54233,N,03139.54467,E,1,07,2.69,271.0,M,16.3,M,,*77
2025-12-20 19:22:44.257 | $GPGSA,A,3,18,29,26,31,05,,,,,,,,2.84,2.69,0.91,1*15
2025-12-20 19:22:44.298 | $BDGSA,A,3,13,08,,,,,,,,,,,2.84,2.69,0.91,4*0A
2025-12-20 19:22:44.370 | $GPGSV,2,1,07,18,72,301,41,29,45,59,35,26,44,309,41,31,25,268,38*4F
2025-12-20 19:22:44.431 | $GPGSV,2,2,07,25,24,154,,5,22,45,23,16,11,320,*4C
2025-12-20 19:22:44.492 | $BDGSV,2,1,05,13,47,67,34,5,42,127,,8,38,52,25,2,23,108,*57
2025-12-20 19:22:44.523 | $BDGSV,2,2,05,3,2,95,*60
2025-12-20 19:22:44.595 | $GNRMC,172245.000,A,3004.54233,N,03139.54467,E,0.001,0.00,201225,,,A*48
2025-12-20 19:22:44.636 | $GNZDA,172245.000,20,12,2025,,*4B
2025-12-20 19:22:45.193 | $GNGGA,172246.000,3004.54231,N,03139.54467,E,1,07,2.69,271.1,M,16.3,M,,*77
2025-12-20 19:22:45.245 | $GPGSA,A,3,18,29,26,31,05,,,,,,,,2.84,2.69,0.91,1*15
2025-12-20 19:22:45.297 | $BDGSA,A,3,13,08,,,,,,,,,,,2.84,2.69,0.91,4*0A
2025-12-20 19:22:45.368 | $GPGSV,2,1,07,18,72,301,41,29,45,59,35,26,44,309,41,31,25,268,37*40
2025-12-20 19:22:45.430 | $GPGSV,2,2,07,25,24,154,,5,22,45,23,16,11,320,*4C
2025-12-20 19:22:45.491 | $BDGSV,2,1,05,13,47,67,34,5,42,127,,8,38,52,26,2,23,108,*54
2025-12-20 19:22:45.513 | $BDGSV,2,2,05,3,2,95,*60
2025-12-20 19:22:45.595 | $GNRMC,172246.000,A,3004.54231,N,03139.54467,E,0.002,0.00,201225,,,A*4A
2025-12-20 19:22:45.625 | $GNZDA,172246.000,20,12,2025,,*48
2025-12-20 19:22:46.194 | $GNGGA,172247.000,3004.54231,N,03139.54467,E,1,07,2.69,271.2,M,16.3,M,,*75
2025-12-20 19:22:46.245 | $GPGSA,A,3,18,29,26,31,05,,,,,,,,2.84,2.69,0.91,1*15
2025-12-20 19:22:46.296 | $BDGSA,A,3,13,08,,,,,,,,,,,2.84,2.69,0.91,4*0A
2025-12-20 19:22:46.368 | $GPGSV,2,1,07,18,72,301,41,29,45,59,37,26,44,309,43,31,25,268,38*4F
2025-12-20 19:22:46.429 | $GPGSV,2,2,07,25,24,154,,5,22,45,23,16,11,320,*4C
2025-12-20 19:22:46.490 | $BDGSV,2,1,05,13,47,67,37,5,42,127,,8,38,52,25,2,23,108,*54
2025-12-20 19:22:46.521 | $BDGSV,2,2,05,3,2,95,*60
2025-12-20 19:22:46.593 | $GNRMC,172247.000,A,3004.54231,N,03139.54467,E,0.000,0.00,201225,,,A*49
2025-12-20 19:22:46.634 | $GNZDA,172247.000,20,12,2025,,*49
2025-12-20 19:22:47.192 | $GNGGA,172248.000,3004.54234,N,03139.54467,E,1,07,2.69,271.3,M,16.3,M,,*7E
2025-12-20 19:22:47.253 | $GPGSA,A,3,18,29,26,31,05,,,,,,,,2.84,2.69,0.91,1*15
2025-12-20 19:22:47.294 | $BDGSA,A,3,13,08,,,,,,,,,,,2.84,2.69,0.91,4*0A
2025-12-20 19:22:47.366 | $GPGSV,2,1,07,18,72,301,42,29,45,59,39,26,44,309,43,31,25,268,38*42
2025-12-20 19:22:47.427 | $GPGSV,2,2,07,25,24,154,,5,22,45,25,16,11,320,*4A
2025-12-20 19:22:47.489 | $BDGSV,2,1,05,13,47,67,38,5,42,127,,8,38,52,29,2,23,108,*57
2025-12-20 19:22:47.519 | $BDGSV,2,2,05,3,2,95,*60
2025-12-20 19:22:47.591 | $GNRMC,172248.000,A,3004.54234,N,03139.54467,E,0.002,0.00,201225,,,A*41
2025-12-20 19:22:47.632 | $GNZDA,172248.000,20,12,2025,,*46
2025-12-20 19:22:48.190 | $GNGGA,172249.000,3004.54239,N,03139.54470,E,1,07,2.69,271.4,M,16.3,M,,*73
2025-12-20 19:22:48.251 | $GPGSA,A,3,18,29,26,31,05,,,,,,,,2.84,2.69,0.91,1*15
2025-12-20 19:22:48.302 | $BDGSA,A,3,13,08,,,,,,,,,,,2.84,2.69,0.91,4*0A
2025-12-20 19:22:48.373 | $GPGSV,2,1,07,18,72,301,44,29,45,59,39,26,44,309,45,31,25,268,38*42
2025-12-20 19:22:48.425 | $GPGSV,2,2,07,25,24,154,,5,22,45,31,16,11,320,26*4B
2025-12-20 19:22:48.486 | $BDGSV,2,1,05,13,47,67,35,5,42,127,,8,38,52,26,2,23,108,*55
2025-12-20 19:22:48.517 | $BDGSV,2,2,05,3,2,95,*60
2025-12-20 19:22:48.589 | $GNRMC,172249.000,A,3004.54239,N,03139.54470,E,0.000,0.00,201225,,,A*49
2025-12-20 19:22:48.631 | $GNZDA,172249.000,20,12,2025,,*47
2025-12-20 19:22:49.196 | $GNGGA,172250.000,3004.54248,N,03139.54474,E,1,07,2.69,271.6,M,16.3,M,,*7B
2025-12-20 19:22:49.258 | $GPGSA,A,3,18,29,26,31,05,,,,,,,,2.84,2.69,0.91,1*15
2025-12-20 19:22:49.310 | $BDGSA,A,3,13,08,,,,,,,,,,,2.84,2.69,0.91,4*0A
2025-12-20 19:22:49.381 | $GPGSV,2,1,07,18,72,301,42,29,45,59,38,26,44,309,43,31,25,268,38*43
2025-12-20 19:22:49.433 | $GPGSV,2,2,07,25,24,154,,5,22,45,31,16,11,320,22*4F
2025-12-20 19:22:49.504 | $BDGSV,2,1,05,13,47,67,35,5,42,127,,8,38,52,23,2,23,108,*50
2025-12-20 19:22:49.525 | $BDGSV,2,2,05,3,2,95,*60
2025-12-20 19:22:49.607 | $GNRMC,172250.000,A,3004.54248,N,03139.54474,E,0.000,0.00,201225,,,A*43
2025-12-20 19:22:49.638 | $GNZDA,172250.000,20,12,2025,,*4F
2025-12-20 19:22:50.196 | $GNGGA,172251.000,3004.54255,N,03139.54476,E,1,07,2.69,271.6,M,16.3,M,,*74
2025-12-20 19:22:50.258 | $GPGSA,A,3,18,29,26,31,05,,,,,,,,2.84,2.69,0.91,1*15
2025-12-20 19:22:50.299 | $BDGSA,A,3,13,08,,,,,,,,,,,2.84,2.69,0.91,4*0A
2025-12-20 19:22:50.381 | $GPGSV,2,1,07,18,72,301,42,29,45,59,39,26,44,309,43,31,25,268,38*42
2025-12-20 19:22:50.432 | $GPGSV,2,2,07,25,24,154,,5,22,45,29,16,11,320,22*46
2025-12-20 19:22:50.494 | $BDGSV,2,1,05,13,47,67,36,5,42,127,,8,38,52,26,2,23,108,*56
2025-12-20 19:22:50.525 | $BDGSV,2,2,05,3,2,95,*60
2025-12-20 19:22:50.596 | $GNRMC,172251.000,A,3004.54255,N,03139.54476,E,0.001,0.00,201225,,,A*4D
2025-12-20 19:22:50.637 | $GNZDA,172251.000,20,12,2025,,*4E
2025-12-20 19:22:51.196 | $GNGGA,172252.000,3004.54260,N,03139.54477,E,1,07,2.69,271.6,M,16.3,M,,*70
2025-12-20 19:22:51.247 | $GPGSA,A,3,18,29,26,31,05,,,,,,,,2.84,2.69,0.91,1*15
2025-12-20 19:22:51.298 | $BDGSA,A,3,13,08,,,,,,,,,,,2.84,2.69,0.91,4*0A
2025-12-20 19:22:51.370 | $GPGSV,2,1,07,18,72,301,42,29,45,59,36,26,44,309,43,31,25,268,38*4D
2025-12-20 19:22:51.431 | $GPGSV,2,2,07,25,24,154,,5,22,45,29,16,11,320,22*46
2025-12-20 19:22:51.493 | $BDGSV,2,1,05,13,47,67,34,5,42,127,,8,38,52,24,2,23,108,*56
2025-12-20 19:22:51.524 | $BDGSV,2,2,05,3,2,95,*60
2025-12-20 19:22:51.596 | $GNRMC,172252.000,A,3004.54260,N,03139.54477,E,0.000,0.00,201225,,,A*48
2025-12-20 19:22:51.637 | $GNZDA,172252.000,20,12,2025,,*4D
2025-12-20 19:22:52.206 | $GNGGA,172253.000,3004.54265,N,03139.54477,E,1,07,2.69,271.6,M,16.3,M,,*74
2025-12-20 19:22:52.257 | $GPGSA,A,3,18,29,26,31,05,,,,,,,,2.84,2.69,0.91,1*15
2025-12-20 19:22:52.309 | $BDGSA,A,3,13,08,,,,,,,,,,,2.84,2.69,0.91,4*0A
2025-12-20 19:22:52.380 | $GPGSV,2,1,07,18,72,301,43,29,45,59,37,26,44,309,43,31,25,268,38*4D
2025-12-20 19:22:52.442 | $GPGSV,2,2,07,25,24,154,,5,22,45,29,16,11,320,22*46
2025-12-20 19:22:52.503 | $BDGSV,2,1,05,13,47,67,37,5,42,127,,8,38,52,26,2,23,108,*57
2025-12-20 19:22:52.534 | $BDGSV,2,2,05,3,2,95,*60
2025-12-20 19:22:52.605 | $GNRMC,172253.000,A,3004.54265,N,03139.54477,E,0.001,0.00,201225,,,A*4D
2025-12-20 19:22:52.646 | $GNZDA,172253.000,20,12,2025,,*4C
2025-12-20 19:22:53.195 | $GNGGA,172254.000,3004.54278,N,03139.54482,E,1,07,2.69,271.7,M,16.3,M,,*74
2025-12-20 19:22:53.256 | $GPGSA,A,3,18,29,26,31,05,,,,,,,,2.84,2.69,0.91,1*15
2025-12-20 19:22:53.308 | $BDGSA,A,3,13,08,,,,,,,,,,,2.84,2.69,0.91,4*0A
2025-12-20 19:22:53.379 | $GPGSV,2,1,07,18,72,301,43,29,44,59,39,26,44,309,43,31,25,268,38*42
2025-12-20 19:22:53.430 | $GPGSV,2,2,07,25,24,154,,5,22,45,31,16,11,320,22*4F
2025-12-20 19:22:53.502 | $BDGSV,2,1,05,13,47,67,37,5,42,127,,8,38,52,26,2,23,108,*57
2025-12-20 19:22:53.523 | $BDGSV,2,2,05,3,2,95,*60
2025-12-20 19:22:53.605 | $GNRMC,172254.000,A,3004.54278,N,03139.54482,E,0.000,0.00,201225,,,A*4D
2025-12-20 19:22:53.635 | $GNZDA,172254.000,20,12,2025,,*4B
2025-12-20 19:22:54.193 | $GNGGA,172255.000,3004.54290,N,03139.54484,E,1,07,2.69,271.7,M,16.3,M,,*75
2025-12-20 19:22:54.245 | $GPGSA,A,3,18,29,26,31,05,,,,,,,,2.84,2.69,0.91,1*15
2025-12-20 19:22:54.296 | $BDGSA,A,3,13,08,,,,,,,,,,,2.84,2.69,0.91,4*0A
2025-12-20 19:22:54.368 | $GPGSV,2,1,07,18,72,301,43,29,44,59,38,26,44,309,43,31,25,268,38*43
2025-12-20 19:22:54.429 | $GPGSV,2,2,07,25,24,154,,5,22,45,30,16,11,320,22*4E
2025-12-20 19:22:54.491 | $BDGSV,2,1,05,13,47,67,34,5,42,127,,8,38,52,23,2,23,108,*51
2025-12-20 19:22:54.512 | $BDGSV,2,2,05,3,2,95,*60
2025-12-20 19:22:54.594 | $GNRMC,172255.000,A,3004.54290,N,03139.54484,E,0.001,0.00,201225,,,A*4D
2025-12-20 19:22:54.624 | $GNZDA,172255.000,20,12,2025,,*4A
2025-12-20 19:22:55.193 | $GNGGA,172256.000,3004.54309,N,03139.54489,E,1,07,2.69,271.9,M,16.3,M,,*74
2025-12-20 19:22:55.254 | $GPGSA,A,3,18,29,26,31,05,,,,,,,,2.84,2.69,0.91,1*15
2025-12-20 19:22:55.305 | $BDGSA,A,3,13,08,,,,,,,,,,,2.84,2.69,0.91,4*0A
2025-12-20 19:22:55.377 | $GPGSV,2,1,07,18,72,301,43,29,44,59,39,26,44,309,43,31,25,268,37*4D
2025-12-20 19:22:55.428 | $GPGSV,2,2,07,25,24,154,,5,22,45,31,16,11,320,22*4F
2025-12-20 19:22:55.489 | $BDGSV,2,1,05,13,47,67,34,5,42,127,,8,38,52,24,2,23,108,*56
2025-12-20 19:22:55.520 | $BDGSV,2,2,05,3,2,95,*60
2025-12-20 19:22:55.592 | $GNRMC,172256.000,A,3004.54309,N,03139.54489,E,0.003,0.00,201225,,,A*40
2025-12-20 19:22:55.633 | $GNZDA,172256.000,20,12,2025,,*49
2025-12-20 19:22:56.191 | $GNGGA,172257.000,3004.54321,N,03139.54492,E,1,07,2.69,272.0,M,16.3,M,,*7F
2025-12-20 19:22:56.253 | $GPGSA,A,3,18,29,26,31,05,,,,,,,,2.84,2.69,0.91,1*15
2025-12-20 19:22:56.304 | $BDGSA,A,3,13,08,,,,,,,,,,,2.84,2.69,0.91,4*0A
2025-12-20 19:22:56.376 | $GPGSV,2,1,07,18,72,301,43,29,44,59,36,26,44,309,43,31,25,268,37*42
2025-12-20 19:22:56.427 | $GPGSV,2,2,07,25,24,154,,5,22,45,29,16,11,320,22*46
2025-12-20 19:22:56.489 | $BDGSV,2,1,05,13,47,67,33,5,42,127,,8,38,52,25,2,23,108,*50
2025-12-20 19:22:56.520 | $BDGSV,2,2,05,3,2,95,*60
2025-12-20 19:22:56.592 | $GNRMC,172257.000,A,3004.54321,N,03139.54492,E,0.001,0.00,201225,,,A*43
2025-12-20 19:22:56.633 | $GNZDA,172257.000,20,12,2025,,*48
2025-12-20 19:22:57.192 | $GNGGA,172258.000,3004.54335,N,03139.54496,E,1,07,2.69,272.2,M,16.3,M,,*73
2025-12-20 19:22:57.253 | $GPGSA,A,3,18,29,26,31,05,,,,,,,,2.84,2.69,0.91,1*15
2025-12-20 19:22:57.304 | $BDGSA,A,3,13,08,,,,,,,,,,,2.84,2.69,0.91,4*0A
2025-12-20 19:22:57.376 | $GPGSV,2,1,07,18,72,301,43,29,44,59,39,26,44,309,43,31,25,268,37*4D
2025-12-20 19:22:57.427 | $GPGSV,2,2,07,25,24,154,,5,22,45,25,16,11,320,22*4A
2025-12-20 19:22:57.489 | $BDGSV,2,1,05,13,47,67,36,5,42,127,,8,38,52,28,2,23,108,*58
2025-12-20 19:22:57.520 | $BDGSV,2,2,05,3,2,95,*60
2025-12-20 19:22:57.591 | $GNRMC,172258.000,A,3004.54335,N,03139.54496,E,0.001,0.00,201225,,,A*4D
2025-12-20 19:22:57.632 | $GNZDA,172258.000,20,12,2025,,*47
2025-12-20 19:22:58.200 | $GNGGA,172259.000,3004.54345,N,03139.54497,E,1,07,2.69,272.3,M,16.3,M,,*75
2025-12-20 19:22:58.251 | $GPGSA,A,3,18,29,26,31,05,,,,,,,,2.84,2.69,0.91,1*15
2025-12-20 19:22:58.302 | $BDGSA,A,3,13,08,,,,,,,,,,,2.84,2.69,0.91,4*0A
2025-12-20 19:22:58.374 | $GPGSV,2,1,07,18,72,301,44,29,44,59,39,26,44,309,44,31,25,268,37*4D
2025-12-20 19:22:58.436 | $GPGSV,2,2,07,25,24,154,,5,22,45,24,16,11,320,23*4A
2025-12-20 19:22:58.498 | $BDGSV,2,1,05,13,47,67,37,5,42,127,,8,38,52,28,2,23,108,*59
2025-12-20 19:22:58.518 | $BDGSV,2,2,05,3,2,95,*60
2025-12-20 19:22:58.600 | $GNRMC,172259.000,A,3004.54345,N,03139.54497,E,0.000,0.00,201225,,,A*4B
2025-12-20 19:22:58.631 | $GNZDA,172259.000,20,12,2025,,*46
2025-12-20 19:22:59.189 | $GNGGA,172300.000,3004.54351,N,03139.54499,E,1,07,2.69,272.4,M,16.3,M,,*74
2025-12-20 19:22:59.251 | $GPGSA,A,3,18,29,26,31,05,,,,,,,,2.84,2.69,0.91,1*15
2025-12-20 19:22:59.302 | $BDGSA,A,3,13,08,,,,,,,,,,,2.84,2.69,0.91,4*0A
2025-12-20 19:22:59.374 | $GPGSV,2,1,07,18,72,301,43,29,44,59,39,26,44,309,44,31,25,268,39*44
2025-12-20 19:22:59.425 | $GPGSV,2,2,07,25,24,154,,5,22,45,32,16,11,320,22*4C
2025-12-20 19:22:59.487 | $BDGSV,1,1,04,13,47,67,35,8,38,52,29,2,23,108,,3,2,95,*52
2025-12-20 19:22:59.569 | $GNRMC,172300.000,A,3004.54351,N,03139.54499,E,0.001,0.00,201225,,,A*4C
2025-12-20 19:22:59.600 | $GNZDA,172300.000,20,12,2025,,*4B
2025-12-20 19:23:00.198 | $GNGGA,172301.000,3004.54357,N,03139.54501,E,1,07,2.69,272.4,M,16.3,M,,*73
2025-12-20 19:23:00.249 | $GPGSA,A,3,18,29,26,31,05,,,,,,,,2.84,2.69,0.91,1*15
2025-12-20 19:23:00.301 | $BDGSA,A,3,13,08,,,,,,,,,,,2.84,2.69,0.91,4*0A
2025-12-20 19:23:00.372 | $GPGSV,2,1,07,18,72,301,43,29,44,59,41,26,44,309,44,31,25,268,37*45
2025-12-20 19:23:00.423 | $GPGSV,2,2,07,25,24,154,,5,22,45,26,16,11,320,22*49
2025-12-20 19:23:00.495 | $BDGSV,2,1,05,13,47,67,35,5,42,127,,8,38,52,29,2,23,108,*5A
2025-12-20 19:23:00.516 | $BDGSV,2,2,05,3,2,95,*60
2025-12-20 19:23:00.598 | $GNRMC,172301.000,A,3004.54357,N,03139.54501,E,0.001,0.00,201225,,,A*4B
2025-12-20 19:23:00.628 | $GNZDA,172301.000,20,12,2025,,*4A
2025-12-20 19:23:01.197 | $GNGGA,172302.000,3004.54365,N,03139.54504,E,1,07,2.69,272.4,M,16.3,M,,*74
2025-12-20 19:23:01.258 | $GPGSA,A,3,18,29,26,31,05,,,,,,,,2.84,2.69,0.91,1*15
2025-12-20 19:23:01.310 | $BDGSA,A,3,13,08,,,,,,,,,,,2.84,2.69,0.91,4*0A
2025-12-20 19:23:01.381 | $GPGSV,2,1,07,18,72,301,43,29,44,59,40,26,44,309,43,31,25,268,37*43
2025-12-20 19:23:01.432 | $GPGSV,2,2,07,25,24,154,,5,22,45,29,16,11,320,22*46
2025-12-20 19:23:01.494 | $BDGSV,2,1,05,13,47,67,35,5,42,127,,8,38,52,29,2,23,108,*5A
2025-12-20 19:23:01.525 | $BDGSV,2,2,05,3,2,95,*60
2025-12-20 19:23:01.607 | $GNRMC,172302.000,A,3004.54365,N,03139.54504,E,0.001,0.00,201225,,,A*4C
2025-12-20 19:23:01.638 | $GNZDA,172302.000,20,12,2025,,*49
2025-12-20 19:23:02.196 | $GNGGA,172303.000,3004.54373,N,03139.54505,E,1,07,2.69,272.6,M,16.3,M,,*71
2025-12-20 19:23:02.258 | $GPGSA,A,3,18,29,26,31,05,,,,,,,,2.84,2.69,0.91,1*15
2025-12-20 19:23:02.299 | $BDGSA,A,3,13,08,,,,,,,,,,,2.84,2.69,0.91,4*0A
2025-12-20 19:23:02.381 | $GPGSV,2,1,07,18,72,301,43,29,44,59,40,26,44,309,43,31,25,268,37*43
2025-12-20 19:23:02.432 | $GPGSV,2,2,07,25,24,154,,5,22,45,28,16,11,320,21*44
2025-12-20 19:23:02.493 | $BDGSV,2,1,05,13,47,67,35,5,42,127,,8,38,52,26,2,23,108,*55
2025-12-20 19:23:02.524 | $BDGSV,2,2,05,3,2,95,*60
2025-12-20 19:23:02.595 | $GNRMC,172303.000,A,3004.54373,N,03139.54505,E,0.001,0.00,201225,,,A*4B
2025-12-20 19:23:02.636 | $GNZDA,172303.000,20,12,2025,,*48
2025-12-20 19:23:03.195 | $GNGGA,172304.000,3004.54379,N,03139.54504,E,1,07,2.69,272.7,M,16.3,M,,*7C
2025-12-20 19:23:03.247 | $GPGSA,A,3,18,29,26,31,05,,,,,,,,2.84,2.69,0.91,1*15
2025-12-20 19:23:03.298 | $BDGSA,A,3,13,08,,,,,,,,,,,2.84,2.69,0.91,4*0A
2025-12-20 19:23:03.370 | $GPGSV,2,1,07,18,72,301,43,29,44,59,40,26,44,309,43,31,25,268,37*43
2025-12-20 19:23:03.431 | $GPGSV,2,2,07,25,24,154,,5,22,45,28,16,11,320,21*44
2025-12-20 19:23:03.492 | $BDGSV,2,1,05,13,47,67,35,5,42,127,,8,38,52,26,2,23,108,*55
2025-12-20 19:23:03.523 | $BDGSV,2,2,05,3,2,95,*60
2025-12-20 19:23:03.595 | $GNRMC,172304.000,A,3004.54379,N,03139.54504,E,0.002,0.00,201225,,,A*44
2025-12-20 19:23:03.636 | $GNZDA,172304.000,20,12,2025,,*4F
2025-12-20 19:23:04.193 | $GNGGA,172305.000,3004.54383,N,03139.54504,E,1,07,2.69,272.9,M,16.3,M,,*76
2025-12-20 19:23:04.255 | $GPGSA,A,3,18,29,26,31,05,,,,,,,,2.84,2.69,0.91,1*15
2025-12-20 19:23:04.306 | $BDGSA,A,3,13,08,,,,,,,,,,,2.84,2.69,0.91,4*0A
2025-12-20 19:23:04.378 | $GPGSV,2,1,07,18,72,301,43,29,44,59,40,26,44,309,43,31,25,268,37*43
2025-12-20 19:23:04.430 | $GPGSV,2,2,07,25,24,154,,5,22,45,27,16,11,320,21*4B
2025-12-20 19:23:04.492 | $BDGSV,2,1,05,13,47,67,35,5,42,127,,8,38,52,26,2,23,108,*55
2025-12-20 19:23:04.523 | $BDGSV,2,2,05,3,2,95,*60
2025-12-20 19:23:04.594 | $GNRMC,172305.000,A,3004.54383,N,03139.54504,E,0.001,0.00,201225,,,A*43
2025-12-20 19:23:04.635 | $GNZDA,172305.000,20,12,2025,,*4E
2025-12-20 19:23:05.195 | $GNGGA,172306.000,3004.54387,N,03139.54504,E,1,07,2.69,273.0,M,16.3,M,,*79
2025-12-20 19:23:05.247 | $GPGSA,A,3,18,29,26,31,05,,,,,,,,2.84,2.69,0.91,1*15
2025-12-20 19:23:05.298 | $BDGSA,A,3,13,08,,,,,,,,,,,2.84,2.69,0.91,4*0A
2025-12-20 19:23:05.370 | $GPGSV,2,1,07,18,72,301,43,29,44,59,40,26,44,309,43,31,25,268,37*43
2025-12-20 19:23:05.431 | $GPGSV,2,2,07,25,24,154,,5,22,45,27,16,11,320,21*4B
2025-12-20 19:23:05.492 | $BDGSV,2,1,05,13,47,67,35,5,42,127,,8,38,52,26,2,23,108,*55
2025-12-20 19:23:05.523 | $BDGSV,2,2,05,3,2,95,*60
2025-12-20 19:23:05.595 | $GNRMC,172306.000,A,3004.54387,N,03139.54504,E,0.001,0.00,201225,,,A*44
2025-12-20 19:23:05.636 | $GNZDA,172306.000,20,12,2025,,*4D
2025-12-20 19:23:06.194 | $GNGGA,172307.000,3004.54393,N,03139.54503,E,1,07,2.69,273.1,M,16.3,M,,*7B
2025-12-20 19:23:06.245 | $GPGSA,A,3,18,29,26,31,05,,,,,,,,2.84,2.69,0.91,1*15
2025-12-20 19:23:06.296 | $BDGSA,A,3,13,08,,,,,,,,,,,2.84,2.69,0.91,4*0A
2025-12-20 19:23:06.368 | $GPGSV,2,1,07,18,72,301,40,29,44,59,39,26,44,309,41,31,25,268,37*4C
2025-12-20 19:23:06.429 | $GPGSV,2,2,07,25,24,154,,5,22,45,27,16,11,320,20*4A
2025-12-20 19:23:06.490 | $BDGSV,2,1,05,13,47,67,35,5,42,127,,8,38,52,27,2,23,108,*54
2025-12-20 19:23:06.521 | $BDGSV,2,2,05,3,2,95,*60
2025-12-20 19:23:06.592 | $GNRMC,172307.000,A,3004.54393,N,03139.54503,E,0.001,0.00,201225,,,A*47
2025-12-20 19:23:06.633 | $GNZDA,172307.000,20,12,2025,,*4C
2025-12-20 19:23:07.191 | $GNGGA,172308.000,3004.54397,N,03139.54502,E,1,07,2.69,273.3,M,16.3,M,,*73
2025-12-20 19:23:07.252 | $GPGSA,A,3,18,29,26,31,05,,,,,,,,2.84,2.69,0.91,1*15
2025-12-20 19:23:07.303 | $BDGSA,A,3,13,08,,,,,,,,,,,2.84,2.69,0.91,4*0A
2025-12-20 19:23:07.374 | $GPGSV,2,1,07,18,72,301,43,29,44,59,41,26,44,309,45,31,25,267,37*4B
2025-12-20 19:23:07.436 | $GPGSV,2,2,07,25,24,154,,5,22,45,31,16,11,320,21*4C
2025-12-20 19:23:07.497 | $BDGSV,2,1,05,13,47,67,35,5,42,127,,8,38,52,26,2,23,108,*55
2025-12-20 19:23:07.517 | $BDGSV,2,2,05,3,2,95,*60
2025-12-20 19:23:07.599 | $GNRMC,172308.000,A,3004.54397,N,03139.54502,E,0.001,0.00,201225,,,A*4D
2025-12-20 19:23:07.630 | $GNZDA,172308.000,20,12,2025,,*43
2025-12-20 19:23:08.198 | $GNGGA,172309.000,3004.54399,N,03139.54500,E,1,07,2.69,273.3,M,16.3,M,,*7E
2025-12-20 19:23:08.250 | $GPGSA,A,3,18,29,26,31,05,,,,,,,,2.84,2.69,0.91,1*15
2025-12-20 19:23:08.301 | $BDGSA,A,3,13,08,,,,,,,,,,,2.84,2.69,0.91,4*0A
2025-12-20 19:23:08.373 | $GPGSV,2,1,07,18,72,301,43,29,44,59,42,26,44,309,45,31,25,267,37*48
2025-12-20 19:23:08.435 | $GPGSV,2,2,07,25,24,154,,5,22,45,33,16,11,320,20*4F
2025-12-20 19:23:08.496 | $BDGSV,2,1,05,13,47,67,35,5,42,127,,8,38,52,26,2,23,108,*55
2025-12-20 19:23:08.517 | $BDGSV,2,2,05,3,2,95,*60
2025-12-20 19:23:08.599 | $GNRMC,172309.000,A,3004.54399,N,03139.54500,E,0.001,0.00,201225,,,A*40
2025-12-20 19:23:08.640 | $GNZDA,172309.000,20,12,2025,,*42
2025-12-20 19:23:09.188 | $GNGGA,172310.000,3004.54403,N,03139.54500,E,1,07,2.69,273.4,M,16.3,M,,*75
2025-12-20 19:23:09.250 | $GPGSA,A,3,18,29,26,31,05,,,,,,,,2.84,2.69,0.91,1*15
2025-12-20 19:23:09.301 | $BDGSA,A,3,13,08,,,,,,,,,,,2.84,2.69,0.91,4*0A
2025-12-20 19:23:09.372 | $GPGSV,2,1,07,18,72,301,43,29,44,59,42,26,44,309,44,31,25,267,37*49
2025-12-20 19:23:09.424 | $GPGSV,2,2,07,25,24,154,,5,22,45,31,16,11,320,20*4D
2025-12-20 19:23:09.485 | $BDGSV,2,1,05,13,47,67,35,5,42,127,,8,38,52,29,2,23,108,*5A
2025-12-20 19:23:09.516 | $BDGSV,2,2,05,3,2,95,*60
2025-12-20 19:23:09.598 | $GNRMC,172310.000,A,3004.54403,N,03139.54500,E,0.000,0.00,201225,,,A*4D
2025-12-20 19:23:09.628 | $GNZDA,172310.000,20,12,2025,,*4A
2025-12-20 19:23:10.189 | $GNGGA,172311.000,3004.54404,N,03139.54499,E,1,07,2.69,273.4,M,16.3,M,,*72
2025-12-20 19:23:10.251 | $GPGSA,A,3,18,29,26,31,05,,,,,,,,2.84,2.69,0.91,1*15
2025-12-20 19:23:10.302 | $BDGSA,A,3,13,08,,,,,,,,,,,2.84,2.69,0.91,4*0A
2025-12-20 19:23:10.374 | $GPGSV,2,1,07,18,72,302,43,29,44,59,41,26,44,309,43,31,25,267,37*4E
2025-12-20 19:23:10.425 | $GPGSV,2,2,07,25,24,154,,5,22,45,29,16,11,320,20*44
2025-12-20 19:23:10.486 | $BDGSV,2,1,05,13,47,67,35,5,42,127,,8,38,52,28,2,23,108,*5B
2025-12-20 19:23:10.517 | $BDGSV,2,2,05,3,2,95,*60
2025-12-20 19:23:10.589 | $GNRMC,172311.000,A,3004.54404,N,03139.54499,E,0.003,0.00,201225,,,A*49
2025-12-20 19:23:10.631 | $GNZDA,172311.000,20,12,2025,,*4B
2025-12-20 19:23:11.199 | $GNGGA,172312.000,3004.54407,N,03139.54498,E,1,07,2.69,273.5,M,16.3,M,,*72
2025-12-20 19:23:11.251 | $GPGSA,A,3,18,29,26,31,05,,,,,,,,2.84,2.69,0.91,1*15
2025-12-20 19:23:11.302 | $BDGSA,A,3,13,08,,,,,,,,,,,2.84,2.69,0.91,4*0A
2025-12-20 19:23:11.374 | $GPGSV,2,1,07,18,72,302,43,29,44,59,40,26,44,309,44,31,25,267,37*48
2025-12-20 19:23:11.425 | $GPGSV,2,2,07,25,24,154,,5,22,45,32,16,11,320,20*4E
2025-12-20 19:23:11.496 | $BDGSV,2,1,05,13,47,67,36,5,42,127,,8,38,52,26,2,23,108,*56
2025-12-20 19:23:11.517 | $BDGSV,2,2,05,3,2,95,*60
2025-12-20 19:23:11.599 | $GNRMC,172312.000,A,3004.54407,N,03139.54498,E,0.003,0.00,201225,,,A*48
2025-12-20 19:23:11.630 | $GNZDA,172312.000,20,12,2025,,*48
2025-12-20 19:23:12.189 | $GNGGA,172313.000,3004.54407,N,03139.54496,E,1,07,2.69,273.5,M,16.3,M,,*7D
2025-12-20 19:23:12.250 | $GPGSA,A,3,18,29,26,31,05,,,,,,,,2.84,2.69,0.91,1*15
2025-12-20 19:23:12.292 | $BDGSA,A,3,13,08,,,,,,,,,,,2.84,2.69,0.91,4*0A
2025-12-20 19:23:12.374 | $GPGSV,2,1,07,18,72,302,43,29,44,59,39,26,44,309,44,31,25,267,36*47
2025-12-20 19:23:12.425 | $GPGSV,2,2,07,25,24,154,,5,22,45,29,16,11,320,20*44
2025-12-20 19:23:12.486 | $BDGSV,2,1,05,13,47,67,36,5,42,127,,8,38,52,27,2,23,108,*57
2025-12-20 19:23:12.517 | $BDGSV,2,2,05,3,2,95,*60
2025-12-20 19:23:12.589 | $GNRMC,172313.000,A,3004.54407,N,03139.54496,E,0.001,0.00,201225,,,A*45
2025-12-20 19:23:12.630 | $GNZDA,172313.000,20,12,2025,,*49
2025-12-20 19:23:13.199 | $GNGGA,172314.000,3004.54409,N,03139.54494,E,1,07,2.69,273.5,M,16.3,M,,*76
2025-12-20 19:23:13.250 | $GPGSA,A,3,18,29,26,31,05,,,,,,,,2.84,2.69,0.91,1*15
2025-12-20 19:23:13.301 | $BDGSA,A,3,13,08,,,,,,,,,,,2.84,2.69,0.91,4*0A
2025-12-20 19:23:13.373 | $GPGSV,2,1,07,18,72,302,43,29,44,59,39,26,44,309,44,31,25,267,36*47
2025-12-20 19:23:13.435 | $GPGSV,2,2,07,25,24,154,,5,22,45,32,16,11,320,21*4F
2025-12-20 19:23:13.496 | $BDGSV,2,1,05,13,47,67,36,5,42,127,,8,38,52,26,2,23,108,*56
2025-12-20 19:23:13.527 | $BDGSV,2,2,05,3,2,95,*60
2025-12-20 19:23:13.599 | $GNRMC,172314.000,A,3004.54409,N,03139.54494,E,0.001,0.00,201225,,,A*4E
2025-12-20 19:23:13.640 | $GNZDA,172314.000,20,12,2025,,*4E
2025-12-20 19:23:14.199 | $GNGGA,172315.000,3004.54412,N,03139.54496,E,1,07,2.69,273.5,M,16.3,M,,*7F
2025-12-20 19:23:14.250 | $GPGSA,A,3,18,29,26,31,05,,,,,,,,2.84,2.69,0.91,1*15
2025-12-20 19:23:14.302 | $BDGSA,A,3,13,08,,,,,,,,,,,2.84,2.69,0.91,4*0A
2025-12-20 19:23:14.373 | $GPGSV,2,1,07,18,72,302,43,29,44,59,39,26,44,309,43,31,25,267,35*43
2025-12-20 19:23:14.435 | $GPGSV,2,2,07,25,24,154,,5,22,45,31,16,11,320,21*4C
2025-12-20 19:23:14.496 | $BDGSV,2,1,05,13,47,67,36,5,42,127,,8,38,52,26,2,23,108,*56
2025-12-20 19:23:14.529 | $BDGSV,2,2,05,3,2,95,*60
2025-12-20 19:23:14.601 | $GNRMC,172315.000,A,3004.54412,N,03139.54496,E,0.000,0.00,201225,,,A*46
2025-12-20 19:23:14.632 | $GNZDA,172315.000,20,12,2025,,*4F
2025-12-20 19:23:15.191 | $GNGGA,172316.000,3004.54416,N,03139.54500,E,1,07,2.69,273.4,M,16.3,M,,*77
2025-12-20 19:23:15.253 | $GPGSA,A,3,18,29,26,31,05,,,,,,,,2.84,2.69,0.91,1*15
2025-12-20 19:23:15.304 | $BDGSA,A,3,13,08,,,,,,,,,,,2.84,2.69,0.91,4*0A
2025-12-20 19:23:15.376 | $GPGSV,2,1,07,18,72,302,43,29,44,59,39,26,44,309,42,31,25,267,34*43
2025-12-20 19:23:15.427 | $GPGSV,2,2,07,25,24,154,,5,22,45,33,16,11,320,21*4E
2025-12-20 19:23:15.498 | $BDGSV,2,1,05,13,47,67,36,5,42,127,,8,38,52,26,2,23,108,*56
2025-12-20 19:23:15.519 | $BDGSV,2,2,05,3,2,95,*60
2025-12-20 19:23:15.601 | $GNRMC,172316.000,A,3004.54416,N,03139.54500,E,0.002,0.00,201225,,,A*4D
2025-12-20 19:23:15.632 | $GNZDA,172316.000,20,12,2025,,*4C
2025-12-20 19:23:16.201 | $GNGGA,172317.000,3004.54421,N,03139.54504,E,1,07,2.69,273.3,M,16.3,M,,*71
2025-12-20 19:23:16.252 | $GPGSA,A,3,18,29,26,31,05,,,,,,,,2.84,2.69,0.91,1*15
2025-12-20 19:23:16.304 | $BDGSA,A,3,13,08,,,,,,,,,,,2.84,2.69,0.91,4*0A
2025-12-20 19:23:16.375 | $GPGSV,2,1,07,18,72,302,42,29,44,59,39,26,44,309,42,31,25,267,35*43
2025-12-20 19:23:16.427 | $GPGSV,2,2,07,25,24,154,,5,22,45,31,16,11,320,21*4C
2025-12-20 19:23:16.499 | $BDGSV,2,1,05,13,47,67,36,5,42,127,,8,38,52,26,2,23,108,*56
2025-12-20 19:23:16.519 | $BDGSV,2,2,05,3,2,95,*60
2025-12-20 19:23:16.602 | $GNRMC,172317.000,A,3004.54421,N,03139.54504,E,0.000,0.00,201225,,,A*4E
2025-12-20 19:23:16.632 | $GNZDA,172317.000,20,12,2025,,*4D
2025-12-20 19:23:17.200 | $GNGGA,172318.000,3004.54426,N,03139.54507,E,1,07,2.69,273.4,M,16.3,M,,*7D
2025-12-20 19:23:17.251 | $GPGSA,A,3,18,29,26,31,05,,,,,,,,2.84,2.69,0.91,1*15
2025-12-20 19:23:17.303 | $BDGSA,A,3,13,08,,,,,,,,,,,2.84,2.69,0.91,4*0A
2025-12-20 19:23:17.375 | $GPGSV,2,1,07,18,72,302,42,29,44,59,39,26,44,309,42,31,25,267,36*40
2025-12-20 19:23:17.436 | $GPGSV,2,2,07,25,24,154,,5,22,45,29,16,11,320,20*44
2025-12-20 19:23:17.498 | $BDGSV,1,1,04,13,47,67,34,5,42,127,,8,38,52,25,3,2,95,*52
2025-12-20 19:23:17.570 | $GNRMC,172318.000,A,3004.54426,N,03139.54507,E,0.003,0.00,201225,,,A*46
2025-12-20 19:23:17.611 | $GNZDA,172318.000,20,12,2025,,*42
2025-12-20 19:23:18.199 | $GNGGA,172319.000,3004.54428,N,03139.54509,E,1,07,2.69,273.5,M,16.3,M,,*7D
2025-12-20 19:23:18.261 | $GPGSA,A,3,18,29,26,31,05,,,,,,,,2.84,2.69,0.91,1*15
2025-12-20 19:23:18.312 | $BDGSA,A,3,13,08,,,,,,,,,,,2.84,2.69,0.91,4*0A
2025-12-20 19:23:18.384 | $GPGSV,2,1,07,18,72,302,42,29,44,59,41,26,44,309,42,31,25,267,36*4F
2025-12-20 19:23:18.435 | $GPGSV,2,2,07,25,24,154,,5,22,45,34,16,11,320,22*4A
2025-12-20 19:23:18.496 | $BDGSV,2,1,05,13,47,67,34,5,42,127,,8,38,52,27,2,23,108,*55
2025-12-20 19:23:18.527 | $BDGSV,2,2,05,3,2,95,*60
2025-12-20 19:23:18.599 | $GNRMC,172319.000,A,3004.54428,N,03139.54509,E,0.001,0.00,201225,,,A*45
2025-12-20 19:23:18.640 | $GNZDA,172319.000,20,12,2025,,*43
2025-12-20 19:23:19.208 | $GNGGA,172320.000,3004.54430,N,03139.54508,E,1,07,2.69,273.5,M,16.3,M,,*7F
2025-12-20 19:23:19.259 | $GPGSA,A,3,18,29,26,31,05,,,,,,,,2.84,2.69,0.91,1*15
2025-12-20 19:23:19.311 | $BDGSA,A,3,13,08,,,,,,,,,,,2.84,2.69,0.91,4*0A
2025-12-20 19:23:19.384 | $GPGSV,2,1,07,18,72,302,44,29,44,59,41,26,44,309,42,31,25,267,36*49
2025-12-20 19:23:19.436 | $GPGSV,2,2,07,25,24,154,,5,22,45,34,16,11,320,22*4A
2025-12-20 19:23:19.508 | $BDGSV,2,1,05,13,47,67,35,5,42,127,,8,38,52,27,2,23,108,*54
2025-12-20 19:23:19.529 | $BDGSV,2,2,05,3,2,95,*60
2025-12-20 19:23:19.612 | $GNRMC,172320.000,A,3004.54430,N,03139.54508,E,0.002,0.00,201225,,,A*44
2025-12-20 19:23:19.643 | $GNZDA,172320.000,20,12,2025,,*49
2025-12-20 19:23:20.204 | $GNGGA,172321.000,3004.54429,N,03139.54505,E,1,07,2.69,273.6,M,16.3,M,,*78
2025-12-20 19:23:20.256 | $GPGSA,A,3,18,29,26,31,05,,,,,,,,2.84,2.69,0.91,1*15
2025-12-20 19:23:20.308 | $BDGSA,A,3,13,08,,,,,,,,,,,2.84,2.69,0.91,4*0A
2025-12-20 19:23:20.381 | $GPGSV,2,1,08,18,72,302,43,29,44,59,41,26,44,309,44,31,25,267,36*47
2025-12-20 19:23:20.443 | $GPGSV,2,2,08,25,24,154,,5,22,45,32,16,11,320,22,193,,,20*7A
2025-12-20 19:23:20.505 | $BDGSV,1,1,04,13,47,67,35,8,38,52,28,2,23,108,,3,2,95,*53
2025-12-20 19:23:20.588 | $GNRMC,172321.000,A,3004.54429,N,03139.54505,E,0.001,0.00,201225,,,A*43
2025-12-20 19:23:20.620 | $GNZDA,172321.000,20,12,2025,,*48
2025-12-20 19:23:21.201 | $GNGGA,172322.000,3004.54430,N,03139.54501,E,1,07,2.69,273.6,M,16.3,M,,*77
2025-12-20 19:23:21.253 | $GPGSA,A,3,18,29,26,31,05,,,,,,,,2.84,2.69,0.91,1*15
2025-12-20 19:23:21.305 | $BDGSA,A,3,13,08,,,,,,,,,,,2.84,2.69,0.91,4*0A
2025-12-20 19:23:21.377 | $GPGSV,2,1,08,18,72,302,43,29,44,59,41,26,44,309,43,31,25,267,36*40
2025-12-20 19:23:21.440 | $GPGSV,2,2,08,25,24,154,,5,22,45,32,16,11,320,22,193,,,20*7A
2025-12-20 19:23:21.502 | $BDGSV,2,1,05,13,47,67,35,5,42,127,,8,38,52,28,2,23,108,*5B
2025-12-20 19:23:21.533 | $BDGSV,2,2,05,3,2,95,*60
2025-12-20 19:23:21.606 | $GNRMC,172322.000,A,3004.54430,N,03139.54501,E,0.001,0.00,201225,,,A*4C
2025-12-20 19:23:21.648 | $GNZDA,172322.000,20,12,2025,,*4B
2025-12-20 19:23:22.199 | $GNGGA,172323.000,3004.54432,N,03139.54499,E,1,07,2.69,273.7,M,16.3,M,,*75
2025-12-20 19:23:22.251 | $GPGSA,A,3,18,29,26,31,05,,,,,,,,2.84,2.69,0.91,1*15
2025-12-20 19:23:22.302 | $BDGSA,A,3,13,08,,,,,,,,,,,2.84,2.69,0.91,4*0A
2025-12-20 19:23:22.375 | $GPGSV,2,1,07,18,72,302,43,29,44,59,41,26,44,309,43,31,25,267,34*4D
2025-12-20 19:23:22.427 | $GPGSV,2,2,07,25,24,154,,5,22,45,30,16,11,320,23*4F
2025-12-20 19:23:22.490 | $BDGSV,2,1,05,13,47,67,35,5,42,127,,8,38,52,27,2,23,108,*54
2025-12-20 19:23:22.521 | $BDGSV,2,2,05,3,2,95,*60
2025-12-20 19:23:22.594 | $GNRMC,172323.000,A,3004.54432,N,03139.54499,E,0.001,0.00,201225,,,A*4F
2025-12-20 19:23:22.636 | $GNZDA,172323.000,20,12,2025,,*4A
2025-12-20 19:23:23.196 | $GNGGA,172324.000,3004.54433,N,03139.54497,E,1,07,2.69,273.8,M,16.3,M,,*72
2025-12-20 19:23:23.248 | $GPGSA,A,3,18,29,26,31,05,,,,,,,,2.84,2.69,0.91,1*15
2025-12-20 19:23:23.300 | $BDGSA,A,3,13,08,,,,,,,,,,,2.84,2.69,0.91,4*0A
2025-12-20 19:23:23.373 | $GPGSV,2,1,07,18,72,302,43,29,44,59,40,26,44,309,43,31,25,267,35*4D
2025-12-20 19:23:23.428 | $GPGSV,2,2,07,25,23,154,,16,23,319,23,5,22,45,29*4B
2025-12-20 19:23:23.495 | $BDGSV,2,1,05,13,47,67,35,5,42,127,,8,38,52,27,2,23,108,*54
2025-12-20 19:23:23.519 | $BDGSV,2,2,05,3,2,95,*60
2025-12-20 19:23:23.596 | $GNRMC,172324.000,A,3004.54433,N,03139.54497,E,0.002,0.00,201225,,,A*44
2025-12-20 19:23:23.628 | $GNZDA,172324.000,20,12,2025,,*4D
2025-12-20 19:23:24.199 | $GNGGA,172325.000,3004.54436,N,03139.54494,E,1,07,2.69,273.9,M,16.3,M,,*74
2025-12-20 19:23:24.252 | $GPGSA,A,3,18,29,26,31,05,,,,,,,,2.84,2.69,0.91,1*15
2025-12-20 19:23:24.304 | $BDGSA,A,3,13,08,,,,,,,,,,,2.84,2.69,0.91,4*0A
2025-12-20 19:23:24.377 | $GPGSV,2,1,07,18,72,302,43,29,44,59,40,26,44,309,43,31,25,267,35*4D
2025-12-20 19:23:24.429 | $GPGSV,2,2,07,25,23,154,,16,23,319,24,5,22,45,32*46
2025-12-20 19:23:24.491 | $BDGSV,2,1,05,13,47,67,35,5,42,127,,8,38,52,28,2,23,108,*5B
2025-12-20 19:23:24.523 | $BDGSV,2,2,05,3,2,95,*60
2025-12-20 19:23:24.595 | $GNRMC,172325.000,A,3004.54436,N,03139.54494,E,0.004,0.00,201225,,,A*45
2025-12-20 19:23:24.637 | $GNZDA,172325.000,20,12,2025,,*4C
2025-12-20 19:23:25.198 | $GNGGA,172326.000,3004.54440,N,03139.54495,E,1,07,2.69,273.9,M,16.3,M,,*77
2025-12-20 19:23:25.250 | $GPGSA,A,3,18,29,26,31,05,,,,,,,,2.84,2.69,0.91,1*15
2025-12-20 19:23:25.302 | $BDGSA,A,3,13,08,,,,,,,,,,,2.84,2.69,0.91,4*0A
2025-12-20 19:23:25.375 | $GPGSV,2,1,07,18,72,302,43,29,44,59,40,26,44,309,43,31,25,267,35*4D
2025-12-20 19:23:25.427 | $GPGSV,2,2,07,25,23,154,,16,23,319,25,5,22,45,32*47
2025-12-20 19:23:25.499 | $BDGSV,2,1,05,13,47,67,35,5,42,127,,8,38,52,28,2,23,108,*5B
2025-12-20 19:23:25.520 | $BDGSV,2,2,05,3,2,95,*60
2025-12-20 19:23:25.603 | $GNRMC,172326.000,A,3004.54440,N,03139.54495,E,0.002,0.00,201225,,,A*40
2025-12-20 19:23:25.635 | $GNZDA,172326.000,20,12,2025,,*4F
2025-12-20 19:23:26.196 | $GNGGA,172327.000,3004.54441,N,03139.54494,E,1,07,2.69,273.9,M,16.3,M,,*76
2025-12-20 19:23:26.248 | $GPGSA,A,3,18,29,26,31,05,,,,,,,,2.84,2.69,0.91,1*15
2025-12-20 19:23:26.304 | $BDGSA,A,3,13,08,,,,,,,,,,,2.84,2.69,0.91,4*0A
2025-12-20 19:23:26.376 | $GPGSV,2,1,07,18,72,302,44,29,44,60,38,26,44,309,43,31,25,267,36*4C
2025-12-20 19:23:26.428 | $GPGSV,2,2,07,25,23,154,,16,23,319,22,5,22,45,29*4A
2025-12-20 19:23:26.491 | $BDGSV,2,1,05,13,47,67,35,5,42,127,,8,38,52,26,2,23,108,*55
2025-12-20 19:23:26.522 | $BDGSV,2,2,05,3,2,95,*60
2025-12-20 19:23:26.595 | $GNRMC,172327.000,A,3004.54441,N,03139.54494,E,0.001,0.00,201225,,,A*42
2025-12-20 19:23:26.637 | $GNZDA,172327.000,20,12,2025,,*4E
2025-12-20 19:23:27.198 | $GNGGA,172328.000,3004.54442,N,03139.54493,E,1,07,2.69,273.9,M,16.3,M,,*7D
2025-12-20 19:23:27.250 | $GPGSA,A,3,18,29,26,31,05,,,,,,,,2.84,2.69,0.91,1*15
2025-12-20 19:23:27.302 | $BDGSA,A,3,13,08,,,,,,,,,,,2.84,2.69,0.91,4*0A
2025-12-20 19:23:27.374 | $GPGSV,2,1,07,18,72,302,42,29,44,60,39,26,44,309,43,31,25,267,36*4B
2025-12-20 19:23:27.426 | $GPGSV,2,2,07,25,23,154,,16,23,319,24,5,22,45,31*45
2025-12-20 19:23:27.489 | $BDGSV,2,1,05,13,47,67,35,5,42,127,,8,38,52,26,2,23,108,*55
2025-12-20 19:23:27.520 | $BDGSV,2,2,05,3,2,95,*60
2025-12-20 19:23:27.593 | $GNRMC,172328.000,A,3004.54442,N,03139.54493,E,0.001,0.00,201225,,,A*49
2025-12-20 19:23:27.635 | $GNZDA,172328.000,20,12,2025,,*41
2025-12-20 19:23:28.195 | $GNGGA,172329.000,3004.54444,N,03139.54494,E,1,07,2.69,273.9,M,16.3,M,,*7D
2025-12-20 19:23:28.258 | $GPGSA,A,3,18,29,26,31,05,,,,,,,,2.84,2.69,0.91,1*15
2025-12-20 19:23:28.310 | $BDGSA,A,3,13,08,,,,,,,,,,,2.84,2.69,0.91,4*0A
2025-12-20 19:23:28.372 | $GPGSV,2,1,07,18,72,302,43,29,44,60,39,26,44,309,43,31,25,267,35*49
2025-12-20 19:23:28.435 | $GPGSV,2,2,07,25,23,154,,16,23,319,23,5,22,45,28*4A
2025-12-20 19:23:28.497 | $BDGSV,2,1,05,13,47,67,35,5,42,127,,8,38,52,26,2,23,108,*55
2025-12-20 19:23:28.529 | $BDGSV,2,2,05,3,2,95,*60
2025-12-20 19:23:28.601 | $GNRMC,172329.000,A,3004.54444,N,03139.54494,E,0.001,0.00,201225,,,A*49
2025-12-20 19:23:28.633 | $GNZDA,172329.000,20,12,2025,,*40
2025-12-20 19:23:29.194 | $GNGGA,172330.000,3004.54449,N,03139.54494,E,1,07,2.69,274.0,M,16.3,M,,*76
2025-12-20 19:23:29.256 | $GPGSA,A,3,18,29,26,31,05,,,,,,,,2.84,2.69,0.91,1*15
2025-12-20 19:23:29.298 | $BDGSA,A,3,13,08,,,,,,,,,,,2.84,2.69,0.91,4*0A
2025-12-20 19:23:29.371 | $GPGSV,2,1,07,18,72,302,43,29,44,60,39,26,44,309,43,31,25,267,34*48
2025-12-20 19:23:29.433 | $GPGSV,2,2,07,25,23,154,,16,23,319,23,5,22,45,28*4A
2025-12-20 19:23:29.495 | $BDGSV,2,1,05,13,47,67,33,5,42,127,,8,38,52,26,2,23,108,*53
2025-12-20 19:23:29.527 | $BDGSV,2,2,05,3,2,95,*60
2025-12-20 19:23:29.600 | $GNRMC,172330.000,A,3004.54449,N,03139.54494,E,0.003,0.00,201225,,,A*4E
2025-12-20 19:23:29.631 | $GNZDA,172330.000,20,12,2025,,*48
2025-12-20 19:23:30.191 | $GNGGA,172331.000,3004.54452,N,03139.54495,E,1,07,2.69,274.1,M,16.3,M,,*7D
2025-12-20 19:23:30.243 | $GPGSA,A,3,18,29,26,31,05,,,,,,,,2.84,2.69,0.91,1*15
2025-12-20 19:23:30.295 | $BDGSA,A,3,13,08,,,,,,,,,,,2.84,2.69,0.91,4*0A
2025-12-20 19:23:30.368 | $GPGSV,2,1,07,18,72,302,43,29,44,60,39,26,44,309,43,31,25,267,34*48
2025-12-20 19:23:30.430 | $GPGSV,2,2,07,25,23,154,,16,23,319,23,5,21,45,30*40
2025-12-20 19:23:30.493 | $BDGSV,2,1,05,13,47,67,33,5,42,127,,8,38,52,20,2,23,108,*55
2025-12-20 19:23:30.514 | $BDGSV,2,2,05,3,2,95,*60
2025-12-20 19:23:30.597 | $GNRMC,172331.000,A,3004.54452,N,03139.54495,E,0.002,0.00,201225,,,A*45
2025-12-20 19:23:30.628 | $GNZDA,172331.000,20,12,2025,,*49
2025-12-20 19:23:31.209 | $GNGGA,172332.000,3004.54456,N,03139.54497,E,1,07,2.69,274.2,M,16.3,M,,*7B
2025-12-20 19:23:31.261 | $GPGSA,A,3,18,29,26,31,05,,,,,,,,2.84,2.69,0.91,1*15
2025-12-20 19:23:31.313 | $BDGSA,A,3,13,08,,,,,,,,,,,2.84,2.69,0.91,4*0A
2025-12-20 19:23:31.386 | $GPGSV,2,1,07,18,72,302,43,29,44,60,39,26,44,309,43,31,25,267,34*48
2025-12-20 19:23:31.438 | $GPGSV,2,2,07,25,23,154,,16,23,319,22,5,21,45,31*40
2025-12-20 19:23:31.511 | $BDGSV,2,1,05,13,47,67,33,5,42,127,,8,38,52,21,2,23,108,*54
2025-12-20 19:23:31.532 | $BDGSV,2,2,05,3,2,95,*60
2025-12-20 19:23:31.614 | $GNRMC,172332.000,A,3004.54456,N,03139.54497,E,0.001,0.00,201225,,,A*43
2025-12-20 19:23:31.646 | $GNZDA,172332.000,20,12,2025,,*4A
